iso,id_centro,nombre_centro,geocoded_lat,geocoded_lon,geocode_source,geocode_precision,arcgis_score,geocode_query,geocode_distance_km,target_type,original_lat,original_lon,geocoded_in_adm1,geocoded_in_adm2,geo_adm1_check,geo_adm2_check,original_in_adm1,original_in_adm2,orig_adm1_check,orig_adm2_check,acceptance
COL,218410000186,ESCUELA CORAZÓNES,1.48047,-75.43528,arcgis,uncertain,87.37,"VDA CORAZÓNES, La Montañita, Caquetá, Colombia",8.493188788750599,compare,1.406389,-75.453889,Caquetá,La Montañita,MATCH,MATCH,Caquetá,La Montañita,MATCH,MATCH,FLAG
COL,218410001271,INSTITUCIÓN EDUCATIVA BRISAS DE SAN ISIDRO,1.20298,-75.10454,arcgis,centroid,92.16,"VDA BRISAS DE SAN ISIDRO, La Montañita, Caquetá, Colombia",44.942070852350206,compare,1.406388889,-75.45388889,Caquetá,La Montañita,MATCH,MATCH,Caquetá,La Montañita,MATCH,MATCH,KEEP_ORIGINAL
COL,219450001220,PUEBLO NUEVO,3.09091,-76.59898,arcgis,uncertain,85.09,"VDA PUEBLO NUEVO, Mercaderes, Cauca, Colombia",0.0,compare,3.09091,-76.59898,Cauca,Buenos Aires,MATCH,MISMATCH,Cauca,Buenos Aires,MATCH,MISMATCH,FLAG
COL,294001001217,CENTRO EDUCATIVO MARIO JOAQUIN GARRIDO,3.8651683,-67.9266056,arcgis,uncertain,88.39,"COM GUAMAL, Inírida, Guainía, Colombia",84.77771665612896,compare,3.316944,-68.4575,Guainía,Inírida,MATCH,MATCH,Guainía,Inírida,MATCH,MATCH,FLAG
COL,294001001225,CENTRO EDUCATIVO HORACIO LAPA,3.91671,-68.19995,arcgis,uncertain,82.13,"COM SAN JUAN FINC SAN JUAN, Cacahual, Guainía, Colombia",76.8524386365928,compare,3.725,-67.53444,Guainía,Inírida,MATCH,MISMATCH,Guainía,Cacahual,MATCH,MATCH,FLAG
COL,294001001284,CENTRO EDUCATIVO CEJALITO,3.48417,-69.81083,arcgis,uncertain,83.32,"VDA INSPECCION LA UNION, Barrancominas, Guainía, Colombia",49.836626288105236,compare,3.31111,-69.39667,Guainía,Barrancominas,MATCH,MATCH,Guainía,Barrancominas,MATCH,MATCH,FLAG
COL,294001001331,CENTRO EDUCATIVO CERRO CASABE,2.510499358174,-68.210079528678,arcgis,centroid,91.35,"VDA DANTO, Puerto Colombia, Guainía, Colombia",62.55474934103044,compare,2.41833,-68.76556,Guainía,Puerto Colombia,MATCH,MATCH,Guainía,Puerto Colombia,MATCH,MATCH,KEEP_ORIGINAL
COL,294001001349,CENTRO EDUCATIVO GABRIELA MISTRAL,2.510499358174,-68.210079528678,arcgis,uncertain,83.2,"VDA COMUNIDAD GUARINUMA, Puerto Colombia, Guainía, Colombia",62.55474934103044,compare,2.41833,-68.76556,Guainía,Puerto Colombia,MATCH,MATCH,Guainía,Puerto Colombia,MATCH,MATCH,FLAG
COL,294001001403,ESCUELA LAGUNA CUMARAL,3.64583,-68.85029,arcgis,uncertain,89.2,"VDA CUMARAL GUAMUCO, Barrancominas, Guainía, Colombia",71.15334994567307,compare,3.31111,-69.39667,Guainía,Barrancominas,MATCH,MATCH,Guainía,Barrancominas,MATCH,MATCH,FLAG
COL,294001001411,CENTRO EDUCATIVO CHATARE,3.48417,-69.81083,arcgis,uncertain,82.84,"VDA MURCIELAGO ALTAMIRA, Barrancominas, Guainía, Colombia",49.836626288105236,compare,3.31111,-69.39667,Guainía,Barrancominas,MATCH,MATCH,Guainía,Barrancominas,MATCH,MATCH,FLAG
COL,294001001420,CENTRO EDUCATIVO CUMARALITO,3.48417,-69.81083,arcgis,uncertain,87.38,"C BARRANCOMINAS LAGUNA COLORADA, Barrancominas, Guainía, Colombia",49.836626288105236,compare,3.31111,-69.39667,Guainía,Barrancominas,MATCH,MATCH,Guainía,Barrancominas,MATCH,MATCH,FLAG
COL,294001001438,CENTRO EDUCATIVO RAMON CARDOZO,3.8651683,-67.9266056,arcgis,uncertain,80.0,"COM SEJALITO FINC SEJALITO, Inírida, Guainía, Colombia",38.41930306597111,compare,3.894444,-68.271667,Guainía,Inírida,MATCH,MATCH,Guainía,Inírida,MATCH,MATCH,FLAG
COL,294001001454,CENTRO EDUCATIVO LORENZO MIRABAL,3.8651683,-67.9266056,arcgis,uncertain,85.14,"COM PIEDRA ALTA, Inírida, Guainía, Colombia",152.73047474741637,compare,2.94504,-68.94821,Guainía,Inírida,MATCH,MATCH,Guainía,Inírida,MATCH,MATCH,FLAG
COL,294001001462,CENTRO EDUCATIVO MANUEL ANTONIO RODRIGUEZ,3.8651683,-67.9266056,arcgis,uncertain,86.36,"VDA BAQUIRO VI RIO INIRIDA, Inírida, Guainía, Colombia",152.73047474741637,compare,2.94504,-68.94821,Guainía,Inírida,MATCH,MATCH,Guainía,Inírida,MATCH,MATCH,FLAG
COL,219701000767,ESCUELA RURAL MIXTA PUERTO GUAYUYACO,1.05078,-76.47683,arcgis,uncertain,88.57,"VDA RESGUARDO GUAYUYACO, Piamonte, Cauca, Colombia",,fill,,,Cauca,Piamonte,MATCH,MATCH,,,NO_DATA,NO_DATA,REJECT
COL,219075000326,SEDE MONTAÑA NEGRA,2.084441022439,-77.208384456914,arcgis,uncertain,82.35,"VDA MONTAÑA NEGRA, Balboa, Cauca, Colombia",3.1178919596299837,compare,2.099827778,-77.18492778,Cauca,Balboa,MATCH,MATCH,Cauca,Balboa,MATCH,MATCH,FLAG
COL,218753001501,ESCUELA PUERTO LOZADA,1.90949,-74.77729,arcgis,uncertain,88.98,"VDA PUERTO LOZADA, San Vicente del Caguán, Caquetá, Colombia",42.3195175502902,compare,2.26673,-74.64595,Caquetá,San Vicente del Caguán,MATCH,MATCH,Meta,La Macarena,MISMATCH,MISMATCH,FLAG
COL,218753001552,ESCUELA ALTO LOSADA,2.11317,-74.76918,arcgis,uncertain,88.94,"VDA ALTO LOSADA, San Vicente del Caguán, Caquetá, Colombia",27.45737316719096,compare,2.3399,-74.67129,Caquetá,San Vicente del Caguán,MATCH,MATCH,Meta,La Macarena,MISMATCH,MISMATCH,FLAG
COL,218753002737,ESCUELA EL GUADUAS,2.11317,-74.76918,arcgis,uncertain,87.2,"VDA VEREDA GUADUAS, San Vicente del Caguán, Caquetá, Colombia",60.3136083965318,compare,2.57518,-74.48476,Caquetá,San Vicente del Caguán,MATCH,MATCH,Meta,Uribe,MISMATCH,MISMATCH,FLAG
COL,218753002745,ESCUELA EL CAIMAN,1.84715,-74.87557,arcgis,street,96.0,"VDA EL CAIMAN, San Vicente del Caguán, Caquetá, Colombia",49.457978774580276,compare,2.286427,-74.945405,Caquetá,Puerto Rico,MATCH,MISMATCH,Caquetá,San Vicente del Caguán,MATCH,MATCH,KEEP_ORIGINAL
COL,218753002753,ESCUELA CEIBAS ABAJO,2.09417,-74.8675,arcgis,centroid,91.75,"VDA CEIBAS ABAJO, San Vicente del Caguán, Caquetá, Colombia",98.65968801254098,compare,1.62061,-75.61822,Caquetá,San Vicente del Caguán,MATCH,MATCH,Caquetá,Florencia,MATCH,MISMATCH,FLAG
COL,219050000046,ESCUELA RURAL MIXTA PUENTETIERRA,2.25005,-77.19998,arcgis,street,95.57,"VDA PUENTETIERRA, Argelia, Cauca, Colombia",5.110971757901838,compare,2.246388889,-77.24583333,Cauca,Argelia,MATCH,MATCH,Cauca,Argelia,MATCH,MATCH,KEEP_ORIGINAL
COL,219050000151,SEDE NUEVA LOS CRISTALES,2.35329,-77.21701,arcgis,uncertain,86.84,"VDA LOS CRISTALES, Argelia, Cauca, Colombia",9.080435272643191,compare,2.413888889,-77.16222222,Cauca,Argelia,MATCH,MATCH,Cauca,Argelia,MATCH,MATCH,FLAG
COL,219075000831,SEDE EL NARANJAL,3.00643,-76.78951,arcgis,uncertain,87.86,"VDA EL NARANJAL, Balboa, Cauca, Colombia",109.96325269881453,compare,2.099827778,-77.18492778,Cauca,Suárez,MATCH,MISMATCH,Cauca,Balboa,MATCH,MATCH,FLAG
COL,218592020721,ESCUELA INDIGINA GALILEA SIBERIA BAJA,2.017472975046,-75.073181627288,arcgis,uncertain,80.0,"VDA INDIGINA GALILEA SIBERIA BAJA, Puerto Rico, Caquetá, Colombia",57.341641330204126,compare,1.533278,-74.89565,Caquetá,Puerto Rico,MATCH,MATCH,Caquetá,Puerto Rico,MATCH,MATCH,FLAG
COL,218592020951,SEDE TRES ESQUINAS,2.017472975046,-75.073181627288,arcgis,centroid,92.82,"VDA TRES ESQUINA, Puerto Rico, Caquetá, Colombia",21.314099054445755,compare,1.874166667,-75.20055556,Caquetá,Puerto Rico,MATCH,MATCH,Caquetá,Puerto Rico,MATCH,MATCH,KEEP_ORIGINAL
COL,218592021051,EL PORVENIR,2.017472975046,-75.073181627288,arcgis,uncertain,81.28,"VDA AIRES DE LA CORDILLERA, Puerto Rico, Caquetá, Colombia",9.756860822091621,compare,1.959792,-75.139344,Caquetá,Puerto Rico,MATCH,MATCH,Caquetá,Puerto Rico,MATCH,MATCH,FLAG
COL,218753003024,SEDE LA INDEPENDENCIA,2.11317,-74.76918,arcgis,uncertain,86.15,"VDA LA INDEPENDENCIA, San Vicente del Caguán, Caquetá, Colombia",33.78505421415766,compare,2.34486,-74.57247,Caquetá,San Vicente del Caguán,MATCH,MATCH,Meta,La Macarena,MISMATCH,MISMATCH,FLAG
COL,218753003041,ESCUELA LA VICTORIA,2.27813,-74.70076,arcgis,street,96.17,"VDA LA VICTORIA, San Vicente del Caguán, Caquetá, Colombia",53.525625521580146,compare,2.20286,-74.22495,Caquetá,San Vicente del Caguán,MATCH,MATCH,Meta,La Macarena,MISMATCH,MISMATCH,FLAG
COL,218753003059,SEDE PIÑALITO,2.11317,-74.76918,arcgis,uncertain,85.66,"VDA SAN JUAN DEL LOSADA, San Vicente del Caguán, Caquetá, Colombia",49.64646565840573,compare,2.46701,-74.49667,Caquetá,San Vicente del Caguán,MATCH,MATCH,Meta,La Macarena,MISMATCH,MISMATCH,FLAG
COL,218410001921,LA YE,1.48047,-75.43528,arcgis,uncertain,86.67,"VDA VEREDA LA YE, La Montañita, Caquetá, Colombia",33.88896644637351,compare,1.28147779,-75.20437231,Caquetá,La Montañita,MATCH,MATCH,Caquetá,La Montañita,MATCH,MATCH,FLAG
COL,218410001930,SIMÓN BOLIVAR,1.48047,-75.43528,arcgis,uncertain,85.37,"VDA NUEVA ILUSIÓN, La Montañita, Caquetá, Colombia",33.88896644637351,compare,1.28147779,-75.20437231,Caquetá,La Montañita,MATCH,MATCH,Caquetá,La Montañita,MATCH,MATCH,FLAG
COL,291669000027,ESCUELA COMUNITARIA SAN JUAN EVANGELISTA,-0.6221725,-72.3828072,arcgis,uncertain,86.96,"VDA PUERTO BERLIN, Puerto Santander, Amazonas, Colombia",388.21921826180824,compare,-3.58639,-70.53667,Amazonas,Puerto Santander,MATCH,MATCH,Amazonas,Puerto Nariño,MATCH,MISMATCH,FLAG
COL,291669000108,ESCUELA SAN JUAN EUDES,-0.6221725,-72.3828072,arcgis,uncertain,86.96,"VDA PUERTO SABALO, Puerto Santander, Amazonas, Colombia",388.21921826180824,compare,-3.58639,-70.53667,Amazonas,Puerto Santander,MATCH,MATCH,Amazonas,Puerto Nariño,MATCH,MISMATCH,FLAG
COL,291669000116,ESCUELA COMUNITARIA SAGRADO CORAZÓN DE JESUS,-0.6221725,-72.3828072,arcgis,uncertain,87.56,"VDA PUERTO BELEN, Puerto Santander, Amazonas, Colombia",388.21921826180824,compare,-3.58639,-70.53667,Amazonas,Puerto Santander,MATCH,MATCH,Amazonas,Puerto Nariño,MATCH,MISMATCH,FLAG
COL,291669000133,ESCUELA COMUNITARIA YONERAIKO,-0.6221725,-72.3828072,arcgis,uncertain,88.84,"VDA GUAMARAYA, Puerto Santander, Amazonas, Colombia",388.21921826180824,compare,-3.58639,-70.53667,Amazonas,Puerto Santander,MATCH,MATCH,Amazonas,Puerto Nariño,MATCH,MISMATCH,FLAG
COL,291669000158,ESCUELA SAN JOSE,-0.6221725,-72.3828072,arcgis,uncertain,86.38,"VDA PUERTO PIZARRO, Puerto Santander, Amazonas, Colombia",388.21921826180824,compare,-3.58639,-70.53667,Amazonas,Puerto Santander,MATCH,MATCH,Amazonas,Puerto Nariño,MATCH,MISMATCH,FLAG
COL,218460800019,VILLA NORA,1.32497,-75.62387,arcgis,centroid,94.42,"VDA PUERTO COLOMBIA VDA PUERTO COLOMBIA, Milán, Caquetá, Colombia",0.0,compare,1.32497,-75.62387,Caquetá,Morelia,MATCH,MISMATCH,Caquetá,Morelia,MATCH,MISMATCH,FLAG
COL,291798000131,ESCUELA COMUNITARIA WONE,-2.450207115687,-70.004212611103,arcgis,uncertain,89.09,"CAS PUPUÑA, Tarapacá, Amazonas, Colombia",0.0,compare,-2.450207115687,-70.004212611103,Amazonas,Tarapacá,MATCH,MATCH,Amazonas,Tarapacá,MATCH,MATCH,FLAG
COL,291798000156,ESCUELA PUERTO EZEQUIEL,-2.450207115687,-70.004212611103,arcgis,uncertain,80.0,"VDA PUERTO EZEQUIEL FINC RIO PUTUMAYO, Tarapacá, Amazonas, Colombia",51.78177714560042,compare,-2.906111,-69.909167,Amazonas,Tarapacá,MATCH,MATCH,Amazonas,Tarapacá,MATCH,MATCH,FLAG
COL,294001000032,CENTRO EDUCATIVO HORACIO LAPA,3.51417,-67.41528,arcgis,centroid,93.38,"C CACAHUAL FINC CACAHUAL, Cacahual, Guainía, Colombia",26.915773239955698,compare,3.725,-67.534444,Guainía,Cacahual,MATCH,MATCH,Guainía,Cacahual,MATCH,MATCH,KEEP_ORIGINAL
COL,294001000342,CENTRO EDUCATIVO PABLO NERUDA,2.82589,-67.75775,arcgis,centroid,92.68,"COM TONINA AST TONINA, Puerto Colombia, Guainía, Colombia",90.73256513527095,compare,2.12194,-67.34472,Guainía,Puerto Colombia,MATCH,MATCH,Guainía,San Felipe,MATCH,MISMATCH,FLAG
COL,294001000733,INSTITUCIÓN EDUCATIVA JUAN FRANCISCO LARA,3.8651683,-67.9266056,arcgis,uncertain,80.0,"VDA BARRANQUITO LAGUNA COLORADA, Inírida, Guainía, Colombia",84.77771665612896,compare,3.316944,-68.4575,Guainía,Inírida,MATCH,MATCH,Guainía,Inírida,MATCH,MATCH,FLAG
COL,294001000822,INSTITUCIÓN EDUCATIVA ANTONIO FORERO,2.26801,-69.9133,arcgis,street,96.92,"VDA GARZA MORICHAL, Morichal, Guainía, Colombia",130.99456803112335,compare,2.94504,-68.94821,Guainía,Morichal,MATCH,MATCH,Guainía,Inírida,MATCH,MISMATCH,FLAG
COL,294001000890,CENTRO EDUCATIVO MURCIELAGO,3.48417,-69.81083,arcgis,uncertain,82.84,"VDA MURCIELAGOALTAMIRA, Barrancominas, Guainía, Colombia",26.463926637962967,compare,3.58341,-69.5941,Guainía,Barrancominas,MATCH,MATCH,Vichada,Cumaribo,MISMATCH,MISMATCH,FLAG
COL,219473000018,SEDE PRINCIPAL TIERRA DENTRO,2.78332,-76.78328,arcgis,street,98.79,"C TIERRADENTRO, Morales, Cauca, Colombia",7.714029012748491,compare,2.756495628,-76.71922708,Cauca,Morales,MATCH,MATCH,Cauca,Morales,MATCH,MATCH,KEEP_ORIGINAL
COL,305001005109,COLEGIO LA ANUNCIACIÓN,6.232240263481,-75.548698751046,arcgis,street,99.57,"KR 21 40 114 BR BUENOS AIRES, Medellín, Antioquia, Colombia",0.009593617551255327,compare,6.23220282,-75.54862056,Antioquia,Medellín,MATCH,MATCH,Antioquia,Medellín,MATCH,MATCH,KEEP_ORIGINAL
COL,219698003032,ESCUELA RURAL MIXTA SEKC DXY CAMINOS DEL SOL,3.00879,-76.4859,arcgis,centroid,90.7,"VDA JAGUITO, Santander de Quilichao, Cauca, Colombia",9.838485087659208,compare,2.95532,-76.415309,Cauca,Santander de Quilichao,MATCH,MATCH,Cauca,Santander de Quilichao,MATCH,MATCH,KEEP_ORIGINAL
COL,219701000104,SEDE LOS PINOS,2.57426,-76.67427,arcgis,uncertain,80.34,"VDA VEREDA LOS PINOS FINC LOS PUNOS VDA LOS PINOS, Piamonte, Cauca, Colombia",0.0,compare,2.57426,-76.67427,Cauca,Cajibío,MATCH,MISMATCH,Cauca,Cajibío,MATCH,MISMATCH,FLAG
COL,223189000013,ESCUELA NUEVA CAMPO BONITO,8.87438,-75.62175,arcgis,uncertain,86.34,"VDA CAMPO BONITO, Ciénaga de Oro, Córdoba, Colombia",23.50344489039049,compare,8.680789753,-75.5358871,Córdoba,Ciénaga de Oro,MATCH,MATCH,Córdoba,Ciénaga de Oro,MATCH,MATCH,FLAG
COL,219050000488,INSTITUCIÓN EDUCATIVA PUERTO RICO,2.53338,-77.05004,arcgis,uncertain,87.0,"CAS PUERTO RICO, Argelia, Cauca, Colombia",18.216788015807957,compare,2.413889,-77.162222,Cauca,El Tambo,MATCH,MISMATCH,Cauca,Argelia,MATCH,MATCH,FLAG
COL,219050000551,SEDE PRINCIPAL LA PLAYA,2.2554729,-77.2484864,arcgis,uncertain,86.67,"VDA LA PLAYA, Argelia, Cauca, Colombia",20.053591342122765,compare,2.413888889,-77.16222222,Cauca,Argelia,MATCH,MATCH,Cauca,Argelia,MATCH,MATCH,FLAG
COL,219050000801,ESCUELA RURAL MIXTA EL ZARZAL,2.29449,-77.03605,arcgis,centroid,90.06,"VDA EL ZARZAL, Argelia, Cauca, Colombia",19.45221171192006,compare,2.341388889,-77.20472222,Cauca,Patía,MATCH,MISMATCH,Cauca,Argelia,MATCH,MATCH,KEEP_ORIGINAL
COL,219050000836,ESCUELA RURAL MIXTA EL CORAZÓN,2.2554729,-77.2484864,arcgis,uncertain,85.0,"VDA EL CORAZON, Argelia, Cauca, Colombia",0.8273842004097087,compare,2.248333333,-77.24638889,Cauca,Argelia,MATCH,MATCH,Cauca,Argelia,MATCH,MATCH,FLAG
COL,219050000917,SEDE EL ENCANTO,2.28335,-77.35002,arcgis,street,96.25,"VDA EL ENCANTO, Argelia, Cauca, Colombia",15.321778420778895,compare,2.247222222,-77.21694444,Cauca,Argelia,MATCH,MATCH,Cauca,Argelia,MATCH,MATCH,KEEP_ORIGINAL
COL,219050000933,SEDE LA MINA LA MINA,5.75203,-75.12069,arcgis,centroid,92.17,"VDA LA MINA, Argelia, Cauca, Colombia",453.79514309971535,compare,2.247222222,-77.21694444,Antioquia,Argelia,MISMATCH,MATCH,Cauca,Argelia,MATCH,MATCH,REJECT
COL,219050001123,CENTRO DOCENTE LA LAGUNA,2.69646,-76.78662,arcgis,centroid,90.06,"VDA LA LAGUNA, Argelia, Cauca, Colombia",60.95944252235113,compare,2.341388889,-77.20472222,Cauca,Cajibío,MATCH,MISMATCH,Cauca,Argelia,MATCH,MATCH,KEEP_ORIGINAL
COL,219050001263,ESCUELA RURAL MIXTA LA MÁRQUEZA,2.47154,-76.21458,arcgis,uncertain,82.16,"VDA LA MARQUEZA FINC LA MARQUESA, Argelia, Cauca, Colombia",113.39200936860932,compare,2.279444444,-77.21694444,Cauca,Inzá,MATCH,MISMATCH,Cauca,Argelia,MATCH,MATCH,FLAG
COL,219050001344,ESCUELA RURAL MIXTA EL MIRADOR,2.2554729,-77.2484864,arcgis,uncertain,80.0,"VDA EL MIRADOR FINC ESCUELA, Argelia, Cauca, Colombia",4.403056270445647,compare,2.279444444,-77.21694444,Cauca,Argelia,MATCH,MATCH,Cauca,Argelia,MATCH,MATCH,FLAG
COL,223189001052,ESCUELA NUEVA MEDELLIN ROJO,8.87438,-75.62175,arcgis,uncertain,85.71,"VDA MEDELLIN ROJO, Ciénaga de Oro, Córdoba, Colombia",23.50344489039049,compare,8.680789753,-75.5358871,Córdoba,Ciénaga de Oro,MATCH,MATCH,Córdoba,Ciénaga de Oro,MATCH,MATCH,FLAG
COL,223189001711,ESCUELA NUESTRA SEÑORA DEL ROSARIO PUEBLO BONITO,8.87438,-75.62175,arcgis,uncertain,86.34,"VDA CAMPO BONITO, Ciénaga de Oro, Córdoba, Colombia",23.50344489039049,compare,8.680789753,-75.5358871,Córdoba,Ciénaga de Oro,MATCH,MATCH,Córdoba,Ciénaga de Oro,MATCH,MATCH,FLAG
COL,219050004149,ESCUELA RURAL MIXTA LA ARBOLEDA,5.69124,-75.13861,arcgis,centroid,92.07,"VDA ARBOLEDA, Argelia, Cauca, Colombia",448.56776844436706,compare,2.248333,-77.246389,Antioquia,Argelia,MISMATCH,MATCH,Cauca,Argelia,MATCH,MATCH,REJECT
COL,219050004360,ESCUELA RURAL MIXTA LA FLORESTA,2.7557,-76.64796,arcgis,centroid,90.6,"VDA LA FLORESTA, Argelia, Cauca, Colombia",87.283893566134,compare,2.246389,-77.245833,Cauca,Morales,MATCH,MISMATCH,Cauca,Argelia,MATCH,MATCH,KEEP_ORIGINAL
COL,219050004386,ESCUELA RURAL MIXTA HUECO LINDO,2.2554729,-77.2484864,arcgis,uncertain,80.0,"VDA HUECO LINDO FINC ESCUELA SEDE HUECO LINDO, Argelia, Cauca, Colombia",1.0522305944425907,compare,2.246388889,-77.24583333,Cauca,Argelia,MATCH,MATCH,Cauca,Argelia,MATCH,MATCH,FLAG
COL,218592000437,ESCUELA EL RETORNO,2.017472975046,-75.073181627288,arcgis,uncertain,87.03,"C LA AGUILILLA, Puerto Rico, Caquetá, Colombia",8.360809034266618,compare,2.040833,-75.001667,Caquetá,Puerto Rico,MATCH,MATCH,Caquetá,Puerto Rico,MATCH,MATCH,FLAG
COL,218753000106,ESCUELA BRISAS DEL LOSADA,2.11317,-74.76918,arcgis,uncertain,86.15,"VDA BRISAS DEL LOSADA, San Vicente del Caguán, Caquetá, Colombia",20.689490840167657,compare,2.26301,-74.65879,Caquetá,San Vicente del Caguán,MATCH,MATCH,Meta,La Macarena,MISMATCH,MISMATCH,FLAG
COL,218753000157,ESCUELA LUZ CHIQUITA MEDIA,2.11317,-74.76918,arcgis,uncertain,85.66,"VDA LUZ CHIQUITA MEDIA, San Vicente del Caguán, Caquetá, Colombia",85.80683145381965,compare,1.684636111,-74.12707222,Caquetá,San Vicente del Caguán,MATCH,MATCH,Caquetá,San Vicente del Caguán,MATCH,MATCH,FLAG
COL,218753000289,ESCUELA ALTO PUENTE GUAMO,1.9854,-74.75225,arcgis,centroid,91.92,"VDA ALTO PUENTE GUAMO, San Vicente del Caguán, Caquetá, Colombia",77.1106552822026,compare,1.684636111,-74.12707222,Caquetá,San Vicente del Caguán,MATCH,MATCH,Caquetá,San Vicente del Caguán,MATCH,MATCH,KEEP_ORIGINAL
COL,218753000696,ESCUELA LAS DELICIAS,1.5921,-74.8375,arcgis,street,96.25,"VDA LAS DELICIAS, San Vicente del Caguán, Caquetá, Colombia",209.34841929490028,compare,3.44222,-74.48833,Caquetá,Puerto Rico,MATCH,MISMATCH,Meta,Uribe,MISMATCH,MISMATCH,FLAG
COL,218753000947,ESCUELA LAS MARIMBAS 1,2.11317,-74.76918,arcgis,uncertain,88.33,"VDA MARIMBAS NO 1, San Vicente del Caguán, Caquetá, Colombia",19.47647685973915,compare,2.28493,-74.73483,Caquetá,San Vicente del Caguán,MATCH,MATCH,Meta,La Macarena,MISMATCH,MISMATCH,FLAG
COL,223555008286,SEDE SAN LUIS,8.40892,-75.5868,arcgis,uncertain,81.22,"VDA SAN LUIS FINC BARCELONA, Planeta Rica, Córdoba, Colombia",13.103209340016399,compare,8.29114,-75.5906,Córdoba,Planeta Rica,MATCH,MATCH,Córdoba,Planeta Rica,MATCH,MATCH,FLAG
COL,223560000331,ESCUELA NUEVA NUEVO PENSAR,7.711365557739,-75.770289461019,arcgis,uncertain,89.52,"VDA LA PIEDRA, Puerto Libertador, Córdoba, Colombia",0.0,compare,7.711365557739,-75.770289461019,Córdoba,Puerto Libertador,MATCH,MATCH,Córdoba,Puerto Libertador,MATCH,MATCH,FLAG
COL,218592001280,ESCUELA EL MENDEZ,2.18538,-75.14787,arcgis,uncertain,88.0,"VDA EL MENDEZ, Puerto Rico, Caquetá, Colombia",36.39541660444997,compare,1.879369702,-75.0316471,Caquetá,Puerto Rico,MATCH,MATCH,Caquetá,Puerto Rico,MATCH,MATCH,FLAG
COL,218592001298,ESCUELA ARENOSO,2.017472975046,-75.073181627288,arcgis,uncertain,88.57,"VDA ARENOSO, Puerto Rico, Caquetá, Colombia",16.035077951411594,compare,1.879369702,-75.0316471,Caquetá,Puerto Rico,MATCH,MATCH,Caquetá,Puerto Rico,MATCH,MATCH,FLAG
COL,218592004041,ESCUELA ALTO BRILLANTE,2.017472975046,-75.073181627288,arcgis,uncertain,84.39,"VDA ALTO BRILLANTE, Puerto Rico, Caquetá, Colombia",8.360809034266618,compare,2.040833,-75.001667,Caquetá,Puerto Rico,MATCH,MATCH,Caquetá,Puerto Rico,MATCH,MATCH,FLAG
COL,218592004084,ESCUELA LA INDEPENDENCIA,2.017472975046,-75.073181627288,arcgis,uncertain,83.26,"VDA LA INDEPENDENCIA, Puerto Rico, Caquetá, Colombia",68.6839949227075,compare,1.435,-74.8675,Caquetá,Puerto Rico,MATCH,MATCH,Caquetá,Puerto Rico,MATCH,MATCH,FLAG
COL,219473000859,SEDE UNIÓN HATILLO,2.814644929028,-76.751328094994,arcgis,uncertain,82.86,"VDA UNION HATILLO, Morales, Cauca, Colombia",7.383696902829538,compare,2.756495628,-76.71922708,Cauca,Morales,MATCH,MATCH,Cauca,Morales,MATCH,MATCH,FLAG
COL,219473000867,SEDE EVANGELISTA RISARALDA,2.814644929028,-76.751328094994,arcgis,uncertain,88.57,"CAS UNION, Morales, Cauca, Colombia",65.90357818091016,compare,3.25721,-76.35655,Cauca,Morales,MATCH,MATCH,Cauca,Miranda,MATCH,MISMATCH,FLAG
COL,218150002775,LOS LOBITOS 2,0.64898488208,-74.274542880762,arcgis,centroid,90.7,"VDA LOBITOS, Cartagena del Chairá, Caquetá, Colombia",94.9599536194212,compare,1.39337,-74.69318,Caquetá,Cartagena del Chairá,MATCH,MATCH,Caquetá,Cartagena del Chairá,MATCH,MATCH,KEEP_ORIGINAL
COL,219418000378,ESCUELA RURAL MIXTA SAGRADA FAMILIA,3.15107,-77.36969,arcgis,street,98.64,"C SAGRADA FAMILIA, López de Micay, Cauca, Colombia",25.18489959307173,compare,3.04167,-77.5683,Cauca,López de Micay,MATCH,MATCH,Cauca,López de Micay,MATCH,MATCH,KEEP_ORIGINAL
COL,219001001290,SEDE EL CANELO PARCELACION,2.3537855,-76.5196626,arcgis,uncertain,86.67,"VDA PARCELACION EL CANELO, Popayán, Cauca, Colombia",,fill,,,Cauca,Popayán,MATCH,MATCH,,,NO_DATA,NO_DATA,REJECT
COL,219001002513,ESCUELA RURAL MIXTA SAN ISIDRO,2.43108,-76.51814,arcgis,street,96.25,"VDA SAN ISIDRO, Popayán, Cauca, Colombia",,fill,,,Cauca,Popayán,MATCH,MATCH,,,NO_DATA,NO_DATA,ACCEPT
COL,219001004036,SEDE LAS MERCEDES,2.55861,-76.71195,arcgis,street,100.0,"VDA LAS MERCEDES, Popayán, Cauca, Colombia",,fill,,,Cauca,Popayán,MATCH,MATCH,,,NO_DATA,NO_DATA,ACCEPT
COL,219780000335,CENTRO DOCENTE AGUA BLANCA,2.86563,-76.77083,arcgis,uncertain,84.19,"C AGUA CLARA FINC AGUA BLANCA, Suárez, Cauca, Colombia",0.12395391762824706,compare,2.865022523,-76.76989415,Cauca,Suárez,MATCH,MATCH,Cauca,Suárez,MATCH,MATCH,FLAG
COL,219780000432,CENTRO RURAL MIXTO MATECAÑA,2.85715,-76.81662,arcgis,street,96.0,"VDA MATECAÑA, Suárez, Cauca, Colombia",5.2307132322131125,compare,2.865274212,-76.77022809,Cauca,Suárez,MATCH,MATCH,Cauca,Suárez,MATCH,MATCH,KEEP_ORIGINAL
COL,219418000394,ESCUELA SAN FRANCISCO ADENTRO,2.8454,-77.24791,arcgis,uncertain,81.18,"C SAN FRANISCO ADENTRO FINC SAN FRANCISCO ADENTRO CP SAN FRANXSICO ADENTRO, López de Micay, Cauca, Colombia",43.05309070082646,compare,3.09583,-77.5436,Cauca,López de Micay,MATCH,MATCH,Cauca,López de Micay,MATCH,MATCH,FLAG
COL,219418000416,SEDE LA CONCEPCIÓN,3.0,-77.25,arcgis,uncertain,87.78,"C CONCEPCION, López de Micay, Cauca, Colombia",34.297934810377185,compare,3.09583,-77.5436,Cauca,López de Micay,MATCH,MATCH,Cauca,López de Micay,MATCH,MATCH,FLAG
COL,219418000424,ESCUELA INTEGRADA EL TRUENO,3.0,-77.25,arcgis,uncertain,89.41,"C EL TRUENO, López de Micay, Cauca, Colombia",35.64658622493061,compare,3.04167,-77.5683,Cauca,López de Micay,MATCH,MATCH,Cauca,López de Micay,MATCH,MATCH,FLAG
COL,219418001226,AGUA CLARA GOLONDRO SEDE PRINCIPAL,2.8454,-77.24791,arcgis,uncertain,81.18,"C AGUA CLARA GOLONDRO FINC AGUA CLARA GOLONDRO CP CORREGIMIENTO, López de Micay, Cauca, Colombia",44.616930744348856,compare,3.132222222,-77.52888889,Cauca,López de Micay,MATCH,MATCH,Cauca,López de Micay,MATCH,MATCH,FLAG
COL,219418001315,ESCUELA RURAL MIXTA LA CAPILLA,3.0,-77.25,arcgis,uncertain,87.03,"VDA LA CAPILLA, López de Micay, Cauca, Colombia",40.45637394603134,compare,3.048333333,-77.61111111,Cauca,López de Micay,MATCH,MATCH,Cauca,López de Micay,MATCH,MATCH,FLAG
COL,219418800021,SEDE CHAVIRRUT,3.0,-77.25,arcgis,uncertain,87.03,"VDA CHAVIRRUT, López de Micay, Cauca, Colombia",0.0,compare,3.0,-77.25,Cauca,López de Micay,MATCH,MATCH,Cauca,López de Micay,MATCH,MATCH,FLAG
COL,219001004532,SEDE LA LAJA,2.50669,-76.65393,arcgis,street,95.86,"VDA LA LAJA, Popayán, Cauca, Colombia",,fill,,,Cauca,Popayán,MATCH,MATCH,,,NO_DATA,NO_DATA,ACCEPT
COL,219001004761,INSTITUCION EDUCATIVA INDIGENA INTERCULTURAL PACHA MAMA,2.428863981007,-76.608620917708,arcgis,street,98.41,"KR 3 21 118 BR CALICANTO, Popayán, Cauca, Colombia",,fill,,,Cauca,Popayán,MATCH,MATCH,,,NO_DATA,NO_DATA,ACCEPT
COL,219022000049,ESCUELA RURAL MIXTA HIGUERILLOS,1.912704398467,-76.834792297506,arcgis,uncertain,84.0,"VDA HIGUERILLOS, Almaguer, Cauca, Colombia",70.6272922672238,compare,1.83839,-76.20365,Cauca,Almaguer,MATCH,MATCH,Huila,San Agustín,MISMATCH,MISMATCH,FLAG
COL,219022000235,ESCUELA RURAL MIXTA CASABLANCA,2.50557,-76.86355,arcgis,uncertain,86.19,"VDA CASABLANCA, Almaguer, Cauca, Colombia",89.463896092009,compare,1.90623,-76.32638,Cauca,El Tambo,MATCH,MISMATCH,Huila,San Agustín,MISMATCH,MISMATCH,FLAG
COL,219022000260,ESCUELA RURAL MIXTA SAUJI,1.93144,-76.85789,arcgis,centroid,93.34,"C SAUJI CAS SAUJI, Almaguer, Cauca, Colombia",36.11034147295029,compare,1.87228,-76.5384,Cauca,Almaguer,MATCH,MATCH,Huila,San Agustín,MISMATCH,MISMATCH,FLAG
COL,215322000100,ESCUELA ROSALES,5.014207455297,-73.486495887732,arcgis,uncertain,87.5,"VDA ROSALES, Guateque, Boyacá, Colombia",3.6978270431420994,compare,4.994722,-73.459444,Boyacá,Guateque,MATCH,MATCH,Boyacá,Guateque,MATCH,MATCH,FLAG
COL,215322000142,ESCUELA GUANZA ARRIBA,5.014207455297,-73.486495887732,arcgis,uncertain,83.78,"VDA GAUNZA ARRIBA, Guateque, Boyacá, Colombia",3.6978270431420994,compare,4.994722,-73.459444,Boyacá,Guateque,MATCH,MATCH,Boyacá,Guateque,MATCH,MATCH,FLAG
COL,215442000383,ESCUELA BELLA UNIÓN,5.570146465362,-74.02182184051,arcgis,uncertain,80.0,"VDA ESCUELA FINC BELLA UNION, Maripí, Boyacá, Colombia",102.50966198689211,compare,4.97278,-73.31667,Boyacá,Maripí,MATCH,MATCH,Boyacá,Macanal,MATCH,MISMATCH,FLAG
COL,215442000413,INSTITUCIÓN EDUCATIVA ZULIA SEDE CANANCEPI,5.61509,-74.04474,arcgis,uncertain,81.18,"VDA VEREDA INSPECCIÓN DE ZULIA CENTRO POBLADO, Maripí, Boyacá, Colombia",4.355737539330148,compare,5.583914,-74.068571,Boyacá,Maripí,MATCH,MATCH,Boyacá,Maripí,MATCH,MATCH,FLAG
COL,215632000631,ESCUELA RESGUARDO BAJO,5.7098,-73.78778,arcgis,street,95.75,"VDA RESGUARDO, Saboyá, Boyacá, Colombia",12.099788371442743,compare,5.64,-73.703889,Boyacá,Saboyá,MATCH,MATCH,Boyacá,Saboyá,MATCH,MATCH,KEEP_ORIGINAL
COL,215507000726,ESCUELA SABRIPA NUEVA,5.62474,-74.24749,arcgis,uncertain,85.8,"VDA SABRIPA FINC LA NUEVA, Otanche, Boyacá, Colombia",8.071892164024137,compare,5.65704499,-74.18216578,Boyacá,Quípama,MATCH,MISMATCH,Boyacá,Otanche,MATCH,MATCH,FLAG
COL,215507000785,ESCUELA EL OASIS,5.747289023068,-74.196173778474,arcgis,uncertain,88.97,"VDA OASIS, Otanche, Boyacá, Colombia",9.898919539029857,compare,5.659444,-74.181667,Boyacá,Otanche,MATCH,MATCH,Boyacá,Otanche,MATCH,MATCH,FLAG
COL,215507000858,ESCUELA LA Y,5.747289023068,-74.196173778474,arcgis,centroid,90.0,"VDA LA YE, Otanche, Boyacá, Colombia",7.69242925791424,compare,5.802508,-74.23806,Boyacá,Otanche,MATCH,MATCH,Boyacá,Otanche,MATCH,MATCH,KEEP_ORIGINAL
COL,215572000351,ESCUELA MORROCALIENTE,6.22109,-74.56348,arcgis,uncertain,82.0,"C VASCONIA VDA MORROCALIENTE VIA PUERTO BOYACA VEREDA PTO SERVIEZ, Puerto Boyacá, Boyacá, Colombia",27.3874068675952,compare,5.976389,-74.591667,Boyacá,Puerto Boyacá,MATCH,MATCH,Boyacá,Puerto Boyacá,MATCH,MATCH,FLAG
COL,215572000636,ESCUELA DOS QUEBRADAS,6.02609,-74.38087,arcgis,street,100.0,"VDA DOSQUEBRADAS, Puerto Boyacá, Boyacá, Colombia",23.957243461192185,compare,5.976389,-74.591667,Boyacá,Puerto Boyacá,MATCH,MATCH,Boyacá,Puerto Boyacá,MATCH,MATCH,KEEP_ORIGINAL
COL,215572000725,ESCUELA ALTO GUAGUAQUI,5.78413,-74.40139,arcgis,street,97.07,"VDA PUERTO PINEDA, Puerto Boyacá, Boyacá, Colombia",29.999726590535936,compare,5.976389,-74.591667,Boyacá,Puerto Boyacá,MATCH,MATCH,Boyacá,Puerto Boyacá,MATCH,MATCH,KEEP_ORIGINAL
COL,217653000773,ESCUELA RURAL EL CEDRITO,8.63491,-76.56632,arcgis,uncertain,82.17,"VDA VEREDA EL CEDRITO, Salamina, Caldas, Colombia",402.53344692040184,compare,5.10944,-75.73806,Antioquia,San Juan de Urabá,MISMATCH,MISMATCH,Caldas,Risaralda,MATCH,MISMATCH,REJECT
COL,217653001087,SEDE EL CARRETERO,5.37052567043,-75.409023420475,arcgis,uncertain,80.0,"VDA KILOMETRO 7 VIA A MANIZALES, Salamina, Caldas, Colombia",46.5862417654099,compare,5.10944,-75.73806,Caldas,Salamina,MATCH,MATCH,Caldas,Risaralda,MATCH,MISMATCH,FLAG
COL,217867000193,ESCUELA RURAL LA GUAYANA,5.48141,-74.89079,arcgis,street,99.99,"VDA LA GUAYANA, Victoria, Caldas, Colombia",1.021987248807127,compare,5.472222,-74.890556,Caldas,Victoria,MATCH,MATCH,Caldas,Victoria,MATCH,MATCH,KEEP_ORIGINAL
COL,205490000292,ESCUELA RURAL SEMANA SANTA,8.376210455221,-76.556158407057,arcgis,uncertain,88.05,"VDA SEMANA SANTA ABAJO, Necoclí, Antioquia, Colombia",18.29848502393706,compare,8.49306,-76.6733,Antioquia,Turbo,MATCH,MISMATCH,Antioquia,Necoclí,MATCH,MATCH,FLAG
COL,205490000314,CENTRO EDUCATIVO RURAL MARIMONDA,8.42321,-76.78497,arcgis,uncertain,86.67,"VDA MARIMONDA, Necoclí, Antioquia, Colombia",14.531872368009532,compare,8.49306,-76.6733,Antioquia,Necoclí,MATCH,MATCH,Antioquia,Necoclí,MATCH,MATCH,FLAG
COL,205490000373,ESCUELA RURAL ALMACIGO ARRIBA,8.5492,-76.74376,arcgis,uncertain,86.44,"VDA ALMACIGO ARRIBA, Necoclí, Antioquia, Colombia",9.950119355151953,compare,8.49306,-76.6733,Antioquia,Necoclí,MATCH,MATCH,Antioquia,Necoclí,MATCH,MATCH,FLAG
COL,205490000748,CENTRO EDUCATIVO RURAL EL INDIO,7.355,-75.65145,arcgis,centroid,90.85,"VDA EL INDIO, Necoclí, Antioquia, Colombia",0.0,compare,7.355,-75.65145,Antioquia,Ituango,MATCH,MISMATCH,Antioquia,Ituango,MATCH,MISMATCH,FLAG
COL,205490000853,ESCUELA RURAL MULATICO PALESTINA,8.51667,-76.66667,arcgis,uncertain,88.44,"VDA MULATICOS PALESTINA, Necoclí, Antioquia, Colombia",10.077178720478303,compare,8.51778,-76.7583,Antioquia,Necoclí,MATCH,MATCH,Antioquia,Necoclí,MATCH,MATCH,FLAG
COL,219212000762,ESCUELA RURAL MIXTA LA ESTHER,3.06813,-76.19021,arcgis,uncertain,87.94,"C LOS ANDES VDA LA ESTHER, Corinto, Cauca, Colombia",8.135131915294647,compare,3.126621592,-76.23422046,Cauca,Corinto,MATCH,MATCH,Cauca,Corinto,MATCH,MATCH,FLAG
COL,219212000801,ESCUELA RURAL MIXTA EL MIRADOR,3.06813,-76.19021,arcgis,uncertain,87.21,"C LOS ANDES VDA PALO NEGRO, Corinto, Cauca, Colombia",8.132468254472839,compare,3.126564173,-76.23425701,Cauca,Corinto,MATCH,MATCH,Cauca,Corinto,MATCH,MATCH,FLAG
COL,219318001342,ESCUELA TEMUEY,2.69663,-75.96248,arcgis,uncertain,86.08,"C TEMUEY VDA VEREDA, Guapi, Cauca, Colombia",214.3439022457056,compare,2.57472,-77.8883,Cauca,Páez,MATCH,MISMATCH,Cauca,Guapi,MATCH,MATCH,FLAG
COL,219318001768,ESCUELA NUEVA LAS PALMAS,8.60332,-76.26692,arcgis,uncertain,81.74,"VDA LAS PARCELAS BONANZA, Guapi, Cauca, Colombia",693.926566354289,compare,2.57472,-77.8883,Antioquia,Arboletes,MISMATCH,MISMATCH,Cauca,Guapi,MATCH,MATCH,REJECT
COL,219392000439,EL PORVENIR SEDE PRINCIPAL,2.19473,-76.75394,arcgis,street,100.0,"VDA LA CUCHILLA, La Sierra, Cauca, Colombia",1.512574783020805,compare,2.182433,-76.75976,Cauca,La Sierra,MATCH,MATCH,Cauca,La Sierra,MATCH,MATCH,KEEP_ORIGINAL
COL,219392000510,SEDE EL RETIRO,2.28642,-76.7996,arcgis,uncertain,89.1,"VDA EL RETIRO, La Sierra, Cauca, Colombia",12.142186733646088,compare,2.183031,-76.764434,Cauca,Rosas,MATCH,MISMATCH,Cauca,La Sierra,MATCH,MATCH,FLAG
COL,219392000587,SEDE EDUCATIVA LAS DELICIAS,2.92417,-76.58913,arcgis,uncertain,89.95,"VDA LAS DELICIAS, La Sierra, Cauca, Colombia",84.63018955892309,compare,2.182426,-76.759845,Cauca,Buenos Aires,MATCH,MISMATCH,Cauca,La Sierra,MATCH,MATCH,FLAG
COL,219392000668,SEDEEDUCATIVA LOMA GRANDE,1.8533,-76.78205,arcgis,uncertain,89.68,"VDA LOMA GRANDE, La Sierra, Cauca, Colombia",36.68023388661271,compare,2.182426,-76.759845,Cauca,San Sebastián,MATCH,MISMATCH,Cauca,La Sierra,MATCH,MATCH,FLAG
COL,219392001133,SEDE SAN ANDRES,2.6363285,-76.0460142,arcgis,uncertain,85.8,"VDA SAN ANDRES, La Sierra, Cauca, Colombia",94.00296757324016,compare,2.182428,-76.759849,Cauca,Inzá,MATCH,MISMATCH,Cauca,La Sierra,MATCH,MATCH,FLAG
COL,219397000160,ESCUELA RURAL MIXTA EL TABLON,2.0008326,-76.7788506,arcgis,uncertain,80.0,"C ARBLEA FINC VEREDA NUEVA ARGELIA, La Vega, Cauca, Colombia",9.398223427158763,compare,2.060413889,-76.83883611,Cauca,La Vega,MATCH,MATCH,Cauca,La Vega,MATCH,MATCH,FLAG
COL,219397000186,ESCUELA RURAL MIXTA GUAYABAL,2.46238,-76.72528,arcgis,centroid,91.08,"VDA GUAYABAL, La Vega, Cauca, Colombia",38.22568085998958,compare,2.122305683,-76.77560468,Cauca,Timbío,MATCH,MISMATCH,Cauca,La Vega,MATCH,MATCH,KEEP_ORIGINAL
COL,152506000178,ESCUELA URBANA DE NIÑOS,1.2253219,-77.2730615,arcgis,uncertain,83.16,"CL NIÑO JESUS DE PRAGA 00 00 BR SECTOR, Ospina, Nariño, Colombia",144.8001879810933,compare,2.11167,-78.2275,Nariño,Pasto,MATCH,MISMATCH,Nariño,Olaya Herrera,MATCH,MISMATCH,FLAG
COL,152560000230,ESCUELA URBANA NIÑO JESUS DE PRAGA,0.8185,-77.51921,arcgis,centroid,92.0,"KR 4 2 61 BR SAN FRANCISCO, Potosí, Nariño, Colombia",87.7817556492537,compare,1.60528,-77.45444,Nariño,Potosí,MATCH,MATCH,Nariño,Policarpa,MATCH,MISMATCH,FLAG
COL,205042800008,SEDE SABANETA,6.54792,-75.92357,arcgis,street,97.45,"VDA SAN CARLOS, Santa Fé de Antioquia, Antioquia, Colombia",,fill,,,Antioquia,Santa Fé de Antioquia,MATCH,MATCH,,,NO_DATA,NO_DATA,ACCEPT
COL,154001004376,COLEGIO HERMOGENES MAZA,7.895132994763,-72.481246331645,arcgis,centroid,92.25,"CL 10 AN 7 E 134 BR GUAIMARAL, Cúcuta, Norte de Santander, Colombia",2.2650656829646207,compare,7.909945734,-72.49536356,Norte de Santander,San José de Cúcuta,MATCH,MISMATCH,Norte de Santander,San José de Cúcuta,MATCH,MISMATCH,FLAG
COL,205051002726,ESCUELA RURAL EL CEDRO,8.63467,-76.4933,arcgis,uncertain,89.44,"C TRINIDAD VDA EL CEDRO, Arboletes, Antioquia, Colombia",10.234187189255152,compare,8.60167,-76.4064,Antioquia,Arboletes,MATCH,MATCH,Antioquia,Arboletes,MATCH,MATCH,FLAG
COL,205051008031,CENTRO EDUCATIVO RURAL LA ROSITA,8.61209754661,-76.410810560364,arcgis,uncertain,88.11,"VDA LA ROSITA, Arboletes, Antioquia, Colombia",1.2568032236383087,compare,8.60167,-76.4064,Antioquia,Arboletes,MATCH,MATCH,Antioquia,Arboletes,MATCH,MATCH,FLAG
COL,205051008180,NUEVO HORIZONTE,8.52088,-76.44472,arcgis,street,100.0,"VDA CAMPANITO, Arboletes, Antioquia, Colombia",0.0,compare,8.52088,-76.44472,Antioquia,Arboletes,MATCH,MATCH,Antioquia,Arboletes,MATCH,MATCH,KEEP_ORIGINAL
COL,215212000171,ESCUELA GUAYABAL,5.67667,-73.9264,arcgis,uncertain,84.86,"VDA GUAYABAL FINC GUAYABAL, Coper, Boyacá, Colombia",30.539247215057806,compare,5.416944,-74.016111,Boyacá,Briceño,MATCH,MISMATCH,Boyacá,Coper,MATCH,MATCH,FLAG
COL,215212000252,ESCUELA PEDRO GOMEZ,5.443426386882,-74.029595685062,arcgis,uncertain,83.75,"CAS PEDRO GOMEZ, Coper, Boyacá, Colombia",3.3014317303504175,compare,5.416944,-74.016111,Boyacá,Coper,MATCH,MATCH,Boyacá,Coper,MATCH,MATCH,FLAG
COL,215212000376,ESCUELA LIMONAL,5.529617,-73.3709392,arcgis,uncertain,88.44,"VDA RICAURTE, Coper, Boyacá, Colombia",74.90696415345957,compare,5.460833,-74.044167,Boyacá,Tunja,MATCH,MISMATCH,Boyacá,Coper,MATCH,MATCH,FLAG
COL,215212000392,ESCUELA SARVAPAJA,5.55943,-73.65303,arcgis,centroid,92.61,"VDA RESGUARDO, Coper, Boyacá, Colombia",44.658144465662375,compare,5.460833,-74.044167,Boyacá,Tinjacá,MATCH,MISMATCH,Boyacá,Coper,MATCH,MATCH,KEEP_ORIGINAL
COL,215204000090,ESCUELA EL ROSAL,5.73332,-73.33331,arcgis,uncertain,85.02,"VDA SANTA BARBARA VI EL ESPARTILLAR, Cómbita, Boyacá, Colombia",39.07185174441915,compare,5.38278,-73.30889,Boyacá,Cómbita,MATCH,MATCH,Boyacá,Ciénega,MATCH,MISMATCH,FLAG
COL,217013000131,CENTRO EDUCATIVO RIOARRIBA,5.63341,-75.39994,arcgis,street,95.36,"VDA RIOARRIBA, Aguadas, Caldas, Colombia",1.0274925560350003,compare,5.634444,-75.409167,Caldas,Aguadas,MATCH,MATCH,Caldas,Aguadas,MATCH,MATCH,KEEP_ORIGINAL
COL,217174000769,EL REPOSO,4.97719,-75.65336,arcgis,street,96.47,"CAS EL REPOSO, Chinchiná, Caldas, Colombia",0.0,compare,4.97719,-75.65336,Caldas,Chinchiná,MATCH,MATCH,Caldas,Chinchiná,MATCH,MATCH,KEEP_ORIGINAL
COL,217174000777,CRUCETAS,4.9843754,-75.6048006,arcgis,uncertain,87.06,"CAS CRUCETAS, Chinchiná, Caldas, Colombia",0.0,compare,4.9843754,-75.6048006,Caldas,Chinchiná,MATCH,MATCH,Caldas,Chinchiná,MATCH,MATCH,FLAG
COL,217272000254,ESCUELA RURAL ALTOMIRA,5.285964841061,-75.590080740232,arcgis,uncertain,87.43,"VDA ALTO MIRA, Filadelfia, Caldas, Colombia",0.0,compare,5.285964841061,-75.590080740232,Caldas,Filadelfia,MATCH,MATCH,Caldas,Filadelfia,MATCH,MATCH,FLAG
COL,215632000771,ESCUELA BARRANCO NEGRO,5.699273579899,-73.747958806508,arcgis,uncertain,80.0,"VDA IEJOSEMARIACORDOBA, Saboyá, Boyacá, Colombia",6.647693227532181,compare,5.656111,-73.706389,Boyacá,Saboyá,MATCH,MATCH,Boyacá,Saboyá,MATCH,MATCH,FLAG
COL,215664000055,SEDE CENTRAL LA AMISTAD,5.96472,-73.56583,arcgis,uncertain,85.15,"VDA MUÑOCES Y CAMACHOS, San José de Pare, Boyacá, Colombia",0.308360522372239,compare,5.965,-73.563056,Boyacá,San José de Pare,MATCH,MATCH,Boyacá,San José de Pare,MATCH,MATCH,FLAG
COL,215664000063,ESCUELA MACIEGAL,5.994284207524,-73.543904529479,arcgis,uncertain,81.6,"VDA MACIEGAL FINC MACIEGAL, San José de Pare, Boyacá, Colombia",3.8844498601748034,compare,5.965,-73.563056,Boyacá,San José de Pare,MATCH,MATCH,Boyacá,San José de Pare,MATCH,MATCH,FLAG
COL,215740000116,ESCUELA FIRAYA SUR,5.498870339195,-73.216165190792,arcgis,uncertain,86.29,"VDA FIRAYA SUR, Siachoque, Boyacá, Colombia",5.169108384228215,compare,5.493055556,-73.2625,Boyacá,Siachoque,MATCH,MATCH,Boyacá,Siachoque,MATCH,MATCH,FLAG
COL,215740000248,TOCAVITA ALTO,5.498870339195,-73.216165190792,arcgis,uncertain,84.21,"VDA TOCAVITA ALTO, Siachoque, Boyacá, Colombia",5.169108384228215,compare,5.493055556,-73.2625,Boyacá,Siachoque,MATCH,MATCH,Boyacá,Siachoque,MATCH,MATCH,FLAG
COL,215753000158,CENTRO EDUCATIVO LLANOGRANDE,5.61221,-73.96254,arcgis,centroid,92.0,"VDA LLANOGRANDE, Soatá, Boyacá, Colombia",78.6002893407614,compare,5.49306,-73.2625,Boyacá,Pauna,MATCH,MISMATCH,Boyacá,Siachoque,MATCH,MISMATCH,FLAG
COL,215776000058,ESCUELA ROA,5.6147,-73.59166,arcgis,street,100.0,"VDA ROA, Sutamarchán, Boyacá, Colombia",31.24584696008665,compare,5.50194,-73.33306,Boyacá,Sutamarchán,MATCH,MATCH,Boyacá,Soracá,MATCH,MISMATCH,FLAG
COL,215776000104,ESCUELA SANTO ECCEHOMO,5.69083,-73.62754,arcgis,centroid,91.2,"VDA SANTO ECCEHOMO, Sutamarchán, Boyacá, Colombia",38.77070887717437,compare,5.50194,-73.33306,Boyacá,Sutamarchán,MATCH,MATCH,Boyacá,Soracá,MATCH,MISMATCH,FLAG
COL,215776000171,ESCUELA CAÑON ALTO,5.641268446934,-73.621694462345,arcgis,centroid,90.3,"VDA CAÑON, Sutamarchán, Boyacá, Colombia",35.501827737845296,compare,5.50194,-73.33306,Boyacá,Sutamarchán,MATCH,MATCH,Boyacá,Soracá,MATCH,MISMATCH,FLAG
COL,215776000350,ESCUELA CAÑON BAJO,5.641268446934,-73.621694462345,arcgis,centroid,90.3,"VDA CAÑON, Sutamarchán, Boyacá, Colombia",35.501827737845296,compare,5.50194,-73.33306,Boyacá,Sutamarchán,MATCH,MATCH,Boyacá,Soracá,MATCH,MISMATCH,FLAG
COL,215778000098,ESCUELA IRZON,5.026825604345,-73.431853184563,arcgis,uncertain,89.68,"VDA IRZON, Sutatenza, Boyacá, Colombia",53.9509214602425,compare,5.50194,-73.33306,Boyacá,Sutatenza,MATCH,MATCH,Boyacá,Soracá,MATCH,MISMATCH,FLAG
COL,205368000460,CENTRO EDUCATIVO RURAL PATUDAL,5.770059528469,-75.765249845451,arcgis,uncertain,87.88,"VDA PATUDAL, Jericó, Antioquia, Colombia",0.07159381519976316,compare,5.76972,-75.7647,Antioquia,Jericó,MATCH,MATCH,Antioquia,Jericó,MATCH,MATCH,FLAG
COL,205368000664,CENTRO EDUCATIVO RURAL LOS BAÑOS,6.3433127,-75.559212,arcgis,uncertain,88.2,"VDA LA SELVA, Jericó, Antioquia, Colombia",67.7069807621481,compare,5.76972,-75.7647,Antioquia,Bello,MATCH,MISMATCH,Antioquia,Jericó,MATCH,MATCH,FLAG
COL,205368000770,CENTRO EDUCATIVO RURAL LA TRAVIEZA,5.770059528469,-75.765249845451,arcgis,uncertain,85.56,"VDA LA TRAVIEZA, Jericó, Antioquia, Colombia",0.07159381519976316,compare,5.76972,-75.7647,Antioquia,Jericó,MATCH,MATCH,Antioquia,Jericó,MATCH,MATCH,FLAG
COL,205368000818,CENTRO EDUCATIVO RURAL PRESBÍTERO ALFREDO GONZALEZ GONZALEZ,8.79368,-76.4186,arcgis,centroid,91.01,"VDA ESTRELLA NUEVA, Jericó, Antioquia, Colombia",0.0,compare,8.79368,-76.4186,Antioquia,Arboletes,MATCH,MISMATCH,Antioquia,Arboletes,MATCH,MISMATCH,FLAG
COL,205467000145,CENTRO EDUCATIVO RURAL EL CARMELO,8.62259,-76.37743,arcgis,uncertain,88.85,"VDA EL CARMELO, Montebello, Antioquia, Colombia",312.07523714222015,compare,5.946667,-75.524167,Antioquia,Arboletes,MATCH,MISMATCH,Antioquia,Montebello,MATCH,MATCH,FLAG
COL,205467000170,CENTRO EDUCATIVO RURAL LA TRINIDAD,5.94038,-75.55524,arcgis,street,96.5,"VDA LA TRINIDAD, Montebello, Antioquia, Colombia",3.5069707004345547,compare,5.946667,-75.524167,Antioquia,Montebello,MATCH,MATCH,Antioquia,Montebello,MATCH,MATCH,KEEP_ORIGINAL
COL,205665010024,CENTRO EDUCATIVO RURAL EL CERROS DE PELAYITO,8.2768,-76.38037,arcgis,uncertain,89.77,"VDA PELAYITO, San Pedro de Urabá, Antioquia, Colombia",12.635409206883633,compare,8.163333,-76.374167,Antioquia,San Pedro de Urabá,MATCH,MATCH,Antioquia,San Pedro de Urabá,MATCH,MATCH,FLAG
COL,205736000441,CENTRO EDUCATIVO RURAL PUENTE BAGRE,7.08341,-74.59998,arcgis,centroid,90.77,"VDA PUENTE BAGRE, Remedios, Antioquia, Colombia",0.0,compare,7.08341,-74.59998,Antioquia,Remedios,MATCH,MATCH,Antioquia,Remedios,MATCH,MATCH,KEEP_ORIGINAL
COL,205736000467,CENTRO EDUCATIVO RURAL LA PO,7.264719377989,-74.625667183133,arcgis,centroid,90.97,"VDA LA PO, Segovia, Antioquia, Colombia",6.150750408561189,compare,7.209444,-74.627778,Antioquia,Segovia,MATCH,MATCH,Antioquia,Segovia,MATCH,MATCH,KEEP_ORIGINAL
COL,205736000556,CENTRO EDUCATIVA RURAL SANTA ISABEL DE AMARA,7.94507,-75.20837,arcgis,uncertain,84.6,"VT SANTA ISABEL DE AMARA, Segovia, Antioquia, Colombia",103.85669414862765,compare,7.209444,-74.627778,Antioquia,Cáceres,MATCH,MISMATCH,Antioquia,Segovia,MATCH,MATCH,FLAG
COL,205736000629,ESCUELA RURAL INTEGRADA CUTURU MEDIO,7.264719377989,-74.625667183133,arcgis,uncertain,85.26,"VDA CUTURU MEDIO, Segovia, Antioquia, Colombia",0.0,compare,7.264719377989,-74.625667183133,Antioquia,Segovia,MATCH,MATCH,Antioquia,Segovia,MATCH,MATCH,FLAG
COL,205736800013,LAS GUAGUAS,7.20014,-74.61663,arcgis,street,96.76,"VDA LAS GUAGUAS, Segovia, Antioquia, Colombia",0.0,compare,7.20014,-74.61663,Antioquia,Segovia,MATCH,MATCH,Antioquia,Segovia,MATCH,MATCH,KEEP_ORIGINAL
COL,205736800021,CENTRO EDUCATIVO RURAL HELECHALES DOS,7.264719377989,-74.625667183133,arcgis,uncertain,86.25,"VDA HELECHALES DOS, Segovia, Antioquia, Colombia",0.0,compare,7.264719377989,-74.625667183133,Antioquia,Segovia,MATCH,MATCH,Antioquia,Segovia,MATCH,MATCH,FLAG
COL,205736800048,KOREA ALTA,7.264719377989,-74.625667183133,arcgis,uncertain,86.67,"VDA KOREA ALTA, Segovia, Antioquia, Colombia",0.0,compare,7.264719377989,-74.625667183133,Antioquia,Segovia,MATCH,MATCH,Antioquia,Segovia,MATCH,MATCH,FLAG
COL,205736800099,HELECHALES UNO,7.264719377989,-74.625667183133,arcgis,uncertain,85.26,"VDA HELECHALES 1, Segovia, Antioquia, Colombia",0.0,compare,7.264719377989,-74.625667183133,Antioquia,Segovia,MATCH,MATCH,Antioquia,Segovia,MATCH,MATCH,FLAG
COL,205736800102,SANTA LAURA,7.264719377989,-74.625667183133,arcgis,uncertain,84.0,"VDA RANCHO QUEMADO, Segovia, Antioquia, Colombia",0.0,compare,7.264719377989,-74.625667183133,Antioquia,Segovia,MATCH,MATCH,Antioquia,Segovia,MATCH,MATCH,FLAG
COL,205736800129,EL CRISTO,7.264719377989,-74.625667183133,arcgis,uncertain,87.43,"VDA EL CRISTO, Segovia, Antioquia, Colombia",0.0,compare,7.264719377989,-74.625667183133,Antioquia,Segovia,MATCH,MATCH,Antioquia,Segovia,MATCH,MATCH,FLAG
COL,205790000251,CENTRO EDUCATIVO RURAL CARLOS ARTURO QUINTERO,5.67592,-75.23727,arcgis,uncertain,87.3,"VDA LAS DELICIAS PIEDRAS, Tarazá, Antioquia, Colombia",203.00550929952317,compare,7.48556,-75.4803,Antioquia,Nariño,MATCH,MISMATCH,Antioquia,Tarazá,MATCH,MATCH,FLAG
COL,208421800014,SEDE 4 PENDALES,10.617064852333,-75.202657095454,arcgis,centroid,94.46,"C LOS PENDALES CALLE 2 5A 73, Luruaco, Atlántico, Colombia",0.10635551307648167,compare,10.618016,-75.2025545,Atlántico,Luruaco,MATCH,MATCH,Atlántico,Luruaco,MATCH,MATCH,KEEP_ORIGINAL
COL,208421800022,SEDE 5 PENDALES,10.617064852333,-75.202657095454,arcgis,centroid,94.46,"C LOS PENDALES CALLE 2 3E 59, Luruaco, Atlántico, Colombia",0.0,compare,10.617064852333,-75.202657095454,Atlántico,Luruaco,MATCH,MATCH,Atlántico,Luruaco,MATCH,MATCH,KEEP_ORIGINAL
COL,208421800049,SEDE 2 CORDOBA,10.63331,-75.09996,arcgis,uncertain,88.5,"C ARROYO DE PIEDRA VI CALLE 3 N 11 65 ARROYO DE PIEDRA, Luruaco, Atlántico, Colombia",5.324736836237305,compare,10.6104147,-75.1427518,Atlántico,Luruaco,MATCH,MATCH,Atlántico,Luruaco,MATCH,MATCH,FLAG
COL,219256000450,SEDE LA AGUADITA,2.38702,-76.84471,arcgis,street,96.36,"VDA LA AGUADITA, El Tambo, Cauca, Colombia",14.616061177092933,compare,2.45618,-76.73283,Cauca,El Tambo,MATCH,MATCH,Cauca,El Tambo,MATCH,MATCH,KEEP_ORIGINAL
COL,219318002306,PINULPI ISLA DE TOMAS,2.49724,-77.72441,arcgis,centroid,90.67,"VDA ISLA TOMAS, Guapi, Cauca, Colombia",15.852074951676302,compare,2.48806,-77.58201,Cauca,Guapi,MATCH,MATCH,Cauca,Guapi,MATCH,MATCH,KEEP_ORIGINAL
COL,219318002314,SANTA GERTRUDIS,2.5072,-77.6669,arcgis,centroid,93.43,"VDA SANTA GERTRUDIS, Guapi, Cauca, Colombia",9.667544571206069,compare,2.48806,-77.58201,Cauca,Guapi,MATCH,MATCH,Cauca,Guapi,MATCH,MATCH,KEEP_ORIGINAL
COL,218756001651,PUERTO HERICHA,0.2122789482,-73.122785242938,arcgis,uncertain,82.7,"VDA PUERTO HERICHA, Solano, Caquetá, Colombia",0.0,compare,0.2122789482,-73.122785242938,Caquetá,Solano,MATCH,MATCH,Caquetá,Solano,MATCH,MATCH,FLAG
COL,218756800014,EL PEREGRINO,0.2122789482,-73.122785242938,arcgis,uncertain,84.0,"VDA EL PEREGRINO, Solano, Caquetá, Colombia",0.0,compare,0.2122789482,-73.122785242938,Caquetá,Solano,MATCH,MATCH,Caquetá,Solano,MATCH,MATCH,FLAG
COL,218785000027,ESCUELA ALTO BERLIN,0.95455,-75.80813,arcgis,centroid,92.01,"VDA ALTO BERLIN, Solita, Caquetá, Colombia",0.0,compare,0.95455,-75.80813,Caquetá,Valparaíso,MATCH,MISMATCH,Caquetá,Valparaíso,MATCH,MISMATCH,FLAG
COL,186320000102,ESCUELA URBANA MIXTA ORITO DOS,0.665371,-76.8723924,arcgis,uncertain,81.54,"KR 15 11 114 BR B JARDIN, Orito, Putumayo, Colombia",1.6256556471451364,compare,0.6775,-76.88055556,Putumayo,Orito,MATCH,MATCH,Putumayo,Orito,MATCH,MATCH,FLAG
COL,186320001591,ESCUELA URBANA MIXTA NUEVA COLOMBIA,0.663859516436,-76.872993977538,arcgis,uncertain,86.0,"KR 9 13 125 BR B COLOMBIA, Orito, Putumayo, Colombia",1.7341863466891578,compare,0.6775,-76.88055556,Putumayo,Orito,MATCH,MATCH,Putumayo,Orito,MATCH,MATCH,FLAG
COL,215580000076,ESCUELA EL BALCÓN,5.52861,-74.19497,arcgis,street,96.0,"VDA BALCON, Quípama, Boyacá, Colombia",1.9252106872988728,compare,5.520278,-74.179722,Boyacá,Quípama,MATCH,MATCH,Boyacá,Quípama,MATCH,MATCH,KEEP_ORIGINAL
COL,215580000092,ESCUELA GUACARY,5.55834612111,-74.215980235092,arcgis,uncertain,87.1,"VDA GUACARY, Quípama, Boyacá, Colombia",5.811673357073487,compare,5.520278,-74.18,Boyacá,Quípama,MATCH,MATCH,Boyacá,Quípama,MATCH,MATCH,FLAG
COL,215580000165,ESCUELA AGUA FRÍA,5.77254,-74.04528,arcgis,uncertain,86.63,"VDA AGUA FRIA, Quípama, Boyacá, Colombia",31.80442801101281,compare,5.519444,-74.179167,Boyacá,Pauna,MATCH,MISMATCH,Boyacá,Quípama,MATCH,MATCH,FLAG
COL,215580000459,ESCUELA HACHITA,5.55834612111,-74.215980235092,arcgis,uncertain,87.1,"VDA HACHITA, Quípama, Boyacá, Colombia",5.94239207012173,compare,5.519444,-74.179167,Boyacá,Quípama,MATCH,MATCH,Boyacá,Quípama,MATCH,MATCH,FLAG
COL,215580000475,ESCUELA ALBERTO GIRALDO,5.55834612111,-74.215980235092,arcgis,uncertain,83.33,"VDA SORQUE GRANDE, Quípama, Boyacá, Colombia",5.834227601492617,compare,5.52,-74.18,Boyacá,Quípama,MATCH,MATCH,Boyacá,Quípama,MATCH,MATCH,FLAG
COL,215580000505,ESCUELA EL PALMAR,5.54192,-74.02107,arcgis,uncertain,89.76,"VDA PALMAR, Quípama, Boyacá, Colombia",17.753780554552524,compare,5.520278,-74.18,Boyacá,Maripí,MATCH,MISMATCH,Boyacá,Quípama,MATCH,MATCH,FLAG
COL,215580000548,ESCUELA EL PARAÍSO,5.5511,-73.88246,arcgis,uncertain,87.0,"VDA EL PARAISO, Quípama, Boyacá, Colombia",33.081126728047614,compare,5.52,-74.179722,Boyacá,Caldas,MATCH,MISMATCH,Boyacá,Quípama,MATCH,MATCH,FLAG
COL,215580000556,ESCUELA SAN LUIS,5.55834612111,-74.215980235092,arcgis,uncertain,87.1,"VDA SAN LUIS, Quípama, Boyacá, Colombia",5.832798411530444,compare,5.520278,-74.179722,Boyacá,Quípama,MATCH,MATCH,Boyacá,Quípama,MATCH,MATCH,FLAG
COL,217013000190,ESCUELA RURAL NUDILLALES,5.596532952706,-75.449658429222,arcgis,uncertain,84.71,"VDA NUDILLALES, Aguadas, Caldas, Colombia",7.462859325582688,compare,5.596667,-75.382222,Caldas,Aguadas,MATCH,MATCH,Caldas,Aguadas,MATCH,MATCH,FLAG
COL,217013000238,ESCUELA RURAL MESONES,5.60135,-75.39552,arcgis,street,96.13,"VDA MESONES, Aguadas, Caldas, Colombia",0.3765458061712581,compare,5.604722,-75.395833,Caldas,Aguadas,MATCH,MATCH,Caldas,Aguadas,MATCH,MATCH,KEEP_ORIGINAL
COL,217013000416,ESCUELA RURAL ARENILLAL,5.45673,-75.11544,arcgis,centroid,90.6,"VDA ARENILLAL, Aguadas, Caldas, Colombia",102.21507860920569,compare,4.83155,-74.4388,Caldas,Pensilvania,MATCH,MISMATCH,Cundinamarca,Anolaima,MISMATCH,MISMATCH,FLAG
COL,217013000629,ESCUELA RURAL LA MARIA,5.63333,-75.56667,arcgis,centroid,94.19,"VDA LA MARIA, Aguadas, Caldas, Colombia",5.189501756608766,compare,5.586667,-75.5675,Caldas,Aguadas,MATCH,MATCH,Caldas,Aguadas,MATCH,MATCH,KEEP_ORIGINAL
COL,217013000785,ESCUELA RURAL LA CHORRERA,5.596532952706,-75.449658429222,arcgis,uncertain,84.71,"VDA LA CHORRERA, Aguadas, Caldas, Colombia",7.462859325582688,compare,5.596667,-75.382222,Caldas,Aguadas,MATCH,MATCH,Caldas,Aguadas,MATCH,MATCH,FLAG
COL,217524800003,ESCUELA AVENIDA EL FERROCARRIL,5.11094,-75.70217,arcgis,street,98.67,"C ARAUCA, Palestina, Caldas, Colombia",,fill,,,Caldas,Palestina,MATCH,MATCH,,,NO_DATA,NO_DATA,ACCEPT
COL,217541000321,COLEGIO BASICO SANTA ANA,5.40851,-75.09921,arcgis,street,100.0,"VDA AGUABONITA, Pensilvania, Caldas, Colombia",84.0361048668629,compare,5.41165,-75.85834,Caldas,Pensilvania,MATCH,MATCH,Risaralda,Mistrató,MISMATCH,MISMATCH,FLAG
COL,213473001784,SEDE TRIBUTARIA PROGRESO BAJO,8.252228949673,-73.972424088519,arcgis,uncertain,80.0,"VDA EL PROGRESO BAJO VDA VEREDA, Morales, Bolívar, Colombia",14.158498174818995,compare,8.379496,-73.9683643,Bolívar,Morales,MATCH,MATCH,Bolívar,Morales,MATCH,MATCH,FLAG
COL,213473001849,CENTRO EDUCATIVO PALMARITO,8.22382,-73.77861,arcgis,street,96.47,"VDA PALMARITO, Morales, Bolívar, Colombia",21.02752009043871,compare,8.411096937,-73.80511978,Bolívar,Morales,MATCH,MATCH,Bolívar,Morales,MATCH,MATCH,KEEP_ORIGINAL
COL,213473030440,SEDE MINA REPOLLO,8.252228949673,-73.972424088519,arcgis,uncertain,84.44,"VDA MINA REPOLLO, Morales, Bolívar, Colombia",25.512398762757233,compare,8.411096937,-73.80511978,Bolívar,Morales,MATCH,MATCH,Bolívar,Morales,MATCH,MATCH,FLAG
COL,213490800003,MINA 30,8.505850347296,-74.11661899333,arcgis,uncertain,88.0,"VDA MINA 30, Norosí, Bolívar, Colombia",0.0,compare,8.505850347296,-74.11661899333,Bolívar,Norosí,MATCH,MATCH,Bolívar,Norosí,MATCH,MATCH,FLAG
COL,213688009007,ESCUELA RURAL MIXTA MINA PÁLIDA,7.772676004885,-74.262601064641,arcgis,uncertain,89.27,"VDA LA PALIDA, Santa Rosa del Sur, Bolívar, Colombia",0.0,compare,7.772676004885,-74.262601064641,Bolívar,Santa Rosa del Sur,MATCH,MATCH,Bolívar,Santa Rosa del Sur,MATCH,MATCH,FLAG
COL,213688011039,SEDE EL PARAÍSO,7.772676004885,-74.262601064641,arcgis,uncertain,88.57,"VDA EL PARAISO, Santa Rosa del Sur, Bolívar, Colombia",0.0,compare,7.772676004885,-74.262601064641,Bolívar,Santa Rosa del Sur,MATCH,MATCH,Bolívar,Santa Rosa del Sur,MATCH,MATCH,FLAG
COL,213688011411,CENTRO EDUCATIVO DE MINA FÁCIL,8.021071318307,-74.462663894447,arcgis,uncertain,87.37,"VDA MINA FACIL, Montecristo, Bolívar, Colombia",0.0,compare,8.021071318307,-74.462663894447,Bolívar,Montecristo,MATCH,MATCH,Bolívar,Montecristo,MATCH,MATCH,FLAG
COL,213688011501,ESCUELA MARIPOSA,7.772676004885,-74.262601064641,arcgis,uncertain,89.27,"VDA MARIZOSA, Santa Rosa del Sur, Bolívar, Colombia",0.0,compare,7.772676004885,-74.262601064641,Bolívar,Santa Rosa del Sur,MATCH,MATCH,Bolívar,Santa Rosa del Sur,MATCH,MATCH,FLAG
COL,205837002231,ESCUELA RURAL LA ILUSIÓN,8.02721,-75.09979,arcgis,centroid,93.18,"VDA LA ILUSION, Turbo, Antioquia, Colombia",178.41689873779995,compare,7.99,-76.7197,Antioquia,Caucasia,MATCH,MISMATCH,Antioquia,Turbo,MATCH,MATCH,KEEP_ORIGINAL
COL,205665010199,MONTECARLOS,8.30822,-76.30784,arcgis,street,98.41,"VDA MONTECARLOS, San Pedro de Urabá, Antioquia, Colombia",0.0,compare,8.30822,-76.30784,Antioquia,San Pedro de Urabá,MATCH,MATCH,Antioquia,San Pedro de Urabá,MATCH,MATCH,KEEP_ORIGINAL
COL,205665800017,CENTRO EDUCATIVO RURAL INDÍGENA ESTUDIANTES HERNANDEZ,8.2768,-76.38037,arcgis,uncertain,80.0,"VDA COMUNIDAD INDÍGENA EL POLVILLO FINC DIOS ME AYUDE, San Pedro de Urabá, Antioquia, Colombia",0.0,compare,8.2768,-76.38037,Antioquia,San Pedro de Urabá,MATCH,MATCH,Antioquia,San Pedro de Urabá,MATCH,MATCH,FLAG
COL,205665800025,CENTRO EDUCATIVO RURAL INDÍGENA MANUEL QUINTIN LAME,8.2768,-76.38037,arcgis,uncertain,83.27,"COM INDIGENA EBANO TACANAL, San Pedro de Urabá, Antioquia, Colombia",0.0,compare,8.2768,-76.38037,Antioquia,San Pedro de Urabá,MATCH,MATCH,Antioquia,San Pedro de Urabá,MATCH,MATCH,FLAG
COL,205665800033,C E R INDÍGENA PARAÍSO,8.2768,-76.38037,arcgis,uncertain,80.0,"COM COMINIDAD INDIGENA EL PARAISO FINC COMUNIDAD INDIGENA EL PARAISO, San Pedro de Urabá, Antioquia, Colombia",0.0,compare,8.2768,-76.38037,Antioquia,San Pedro de Urabá,MATCH,MATCH,Antioquia,San Pedro de Urabá,MATCH,MATCH,FLAG
COL,205847000156,CENTRO EDUCATIVO RURAL CALLES ARRIBA,6.52142,-76.29026,arcgis,centroid,92.58,"VDA CALLES ARRIBA, Urrao, Antioquia, Colombia",31.80216184819395,compare,6.28333,-76.1308,Antioquia,Urrao,MATCH,MATCH,Antioquia,Urrao,MATCH,MATCH,KEEP_ORIGINAL
COL,205679001150,CENTRO EDUCATIVO RURAL ABEL BEDOYA,6.24227,-75.18266,arcgis,uncertain,87.95,"VDA LOS NARANJOS, Santa Bárbara, Antioquia, Colombia",60.28774564723118,compare,5.876667,-75.585278,Antioquia,Guatapé,MATCH,MISMATCH,Antioquia,Santa Bárbara,MATCH,MATCH,FLAG
COL,205679001214,CENTRO EDUCATIVO RURAL LAS PAVAS,5.885863348751,-75.585162371657,arcgis,uncertain,89.0,"VDA LAS PAVAS, Santa Bárbara, Antioquia, Colombia",1.022667302143424,compare,5.876667,-75.585278,Antioquia,Santa Bárbara,MATCH,MATCH,Antioquia,Santa Bárbara,MATCH,MATCH,FLAG
COL,217541000886,ESCUELA NUEVA CHAQUIRAL,5.39482,-75.05606,arcgis,centroid,94.07,"VDA CHAQUIRAL, Pensilvania, Caldas, Colombia",0.4548494348997487,compare,5.3925,-75.059444,Caldas,Pensilvania,MATCH,MATCH,Caldas,Pensilvania,MATCH,MATCH,KEEP_ORIGINAL
COL,217541001301,COLEGIO OFICIAL MIXTO LA RIOJA,5.35388,-75.11554,arcgis,centroid,91.22,"CAS VEREDA LA RIOJA, Pensilvania, Caldas, Colombia",7.5186832273585384,compare,5.363611,-75.048333,Caldas,Pensilvania,MATCH,MATCH,Caldas,Pensilvania,MATCH,MATCH,KEEP_ORIGINAL
COL,217541001475,ESCUELA NUEVA EL NARANJITO,5.37774,-75.09089,arcgis,street,95.67,"VDA NARANJITO, Pensilvania, Caldas, Colombia",3.8486922744316843,compare,5.3925,-75.059444,Caldas,Pensilvania,MATCH,MATCH,Caldas,Pensilvania,MATCH,MATCH,KEEP_ORIGINAL
COL,217541001645,ESCUELA NUEVA AURORA BAJA,5.36978,-75.05874,arcgis,centroid,94.34,"VDA AURORA BAJA, Pensilvania, Caldas, Colombia",1.3408779241826165,compare,5.363611,-75.048333,Caldas,Pensilvania,MATCH,MATCH,Caldas,Pensilvania,MATCH,MATCH,KEEP_ORIGINAL
COL,220001000055,ESCUELA NUEVA SAN ISIDRO LABRADOR,10.73617,-73.40017,arcgis,centroid,90.59,"C AZUCAR BUENA VDA TIERRAS NUEVAS, Valledupar, Cesar, Colombia",21.567112142104993,compare,10.73251,-73.202793,Cesar,Valledupar,MATCH,MATCH,La Guajira,San Juan del Cesar,MISMATCH,MISMATCH,FLAG
COL,220011002005,SEDE MONTELIBANO,8.3102286,-73.5998366,arcgis,uncertain,84.44,"VDA MONTELIBANO, Aguachica, Cesar, Colombia",2.1759009936805613,compare,8.299962,-73.616672,Cesar,Aguachica,MATCH,MATCH,Cesar,Aguachica,MATCH,MATCH,FLAG
COL,220011023835,ESCUELA RURAL MIXTA LA BATEA,8.3102286,-73.5998366,arcgis,uncertain,87.5,"VDA LA BATEA, Aguachica, Cesar, Colombia",5.472926401246541,compare,8.292737,-73.64633,Cesar,Aguachica,MATCH,MATCH,Cesar,Aguachica,MATCH,MATCH,FLAG
COL,218860001344,ESCUELA EL JARDIN,1.14361,-75.55392,arcgis,street,100.0,"VDA EL JARDIN, Valparaíso, Caquetá, Colombia",0.0,compare,1.14361,-75.55392,Caquetá,Valparaíso,MATCH,MATCH,Caquetá,Valparaíso,MATCH,MATCH,KEEP_ORIGINAL
COL,181794005251,CENTRO DE FORMACIÓN INTEGRAL ALEGRE DESPERTAR,6.46648757786,-71.729724709396,arcgis,street,96.34,"CL 18 10 52 BR VEINTE DE JULIO, Tame, Arauca, Colombia",0.0,compare,6.46648757786,-71.729724709396,Arauca,Tame,MATCH,MATCH,Arauca,Tame,MATCH,MATCH,KEEP_ORIGINAL
COL,183001000508,CONCENTRACIÓN EDUCATIVA LAS BRISAS,1.610430750106,-75.606044989149,arcgis,centroid,94.29,"KR 10 10 133 BR LAS BRISAS, Florencia, Caquetá, Colombia",0.0,compare,1.610430750106,-75.606044989149,Caquetá,Florencia,MATCH,MATCH,Caquetá,Florencia,MATCH,MATCH,KEEP_ORIGINAL
COL,183001000770,PUEBLO NUEVO,1.632557581504,-75.614955147391,arcgis,uncertain,86.78,"CL 2 A 29 BR TIRSO QUINTERO, Florencia, Caquetá, Colombia",0.0,compare,1.632557581504,-75.614955147391,Caquetá,Florencia,MATCH,MATCH,Caquetá,Florencia,MATCH,MATCH,FLAG
COL,183001000818,SEDE EDUCATIVA JUAN XXIII,1.612155203061,-75.611196568055,arcgis,street,95.55,"KR 11 10 00 BR JUAN XXIII EQ ESQUINA, Florencia, Caquetá, Colombia",0.0,compare,1.612155203061,-75.611196568055,Caquetá,Florencia,MATCH,MATCH,Caquetá,Florencia,MATCH,MATCH,KEEP_ORIGINAL
COL,183001000842,ESCUELA LA LIBERTAD,1.623101151567,-75.61174195847,arcgis,street,95.5,"CL 25 ESQUINA 25 04 BR LA LIBERTAD, Florencia, Caquetá, Colombia",11.55230090307816,compare,1.725873877,-75.59652412,Caquetá,Florencia,MATCH,MATCH,Caquetá,Florencia,MATCH,MATCH,KEEP_ORIGINAL
COL,183001000851,ESCUELA LOS ALPES,1.623681160705,-75.605746381712,arcgis,street,96.83,"CL 21 CARRERA 3 ESQUINA 3 13 BR LOS ALPES, Florencia, Caquetá, Colombia",0.0,compare,1.623681160705,-75.605746381712,Caquetá,Florencia,MATCH,MATCH,Caquetá,Florencia,MATCH,MATCH,KEEP_ORIGINAL
COL,183001000931,INSTITUCIÓN EDUCATIVA LA SALLE,1.61565086752,-75.615742270433,arcgis,centroid,93.9,"CL 25 CARRERA 14 01 BR TORASSO, Florencia, Caquetá, Colombia",0.0,compare,1.61565086752,-75.615742270433,Caquetá,Florencia,MATCH,MATCH,Caquetá,Florencia,MATCH,MATCH,KEEP_ORIGINAL
COL,183001001946,INSTITUCIÓN EDUCATIVA LOS PINOS,1.631475007921,-75.604674860651,arcgis,street,98.41,"KR 1A 30 21 BR LOS PINOS, Florencia, Caquetá, Colombia",0.0,compare,1.631475007921,-75.604674860651,Caquetá,Florencia,MATCH,MATCH,Caquetá,Florencia,MATCH,MATCH,KEEP_ORIGINAL
COL,186573004104,ESCUELA RURAL MIXTA BILINGÜE,-0.187948543734,-74.787461822769,arcgis,centroid,91.25,"CL 17 0 0 BR LAS VILLAS, Puerto Leguízamo, Putumayo, Colombia",40.58352076301435,compare,0.056667,-75.058333,Putumayo,Puerto Leguízamo,MATCH,MATCH,Putumayo,Puerto Leguízamo,MATCH,MATCH,KEEP_ORIGINAL
COL,186573004601,INGA KICHWA NUKANCHIRUNA,-0.07568,-74.72694,arcgis,street,100.0,"VDA SAN FRANCISCO, Puerto Leguízamo, Putumayo, Colombia",39.67914217026683,compare,0.056667,-75.058333,Putumayo,Puerto Leguízamo,MATCH,MATCH,Putumayo,Puerto Leguízamo,MATCH,MATCH,KEEP_ORIGINAL
COL,186573004619,CIUDADELA CÁNDIDO LEGUIZAMO,-0.196240205877,-74.781622633531,arcgis,uncertain,87.88,"CL 6 CR 3 BR ESTAMOS JUNTOS, Puerto Leguízamo, Putumayo, Colombia",0.0,compare,-0.196240205877,-74.781622633531,Putumayo,Puerto Leguízamo,MATCH,MATCH,Putumayo,Puerto Leguízamo,MATCH,MATCH,FLAG
COL,186757004191,ESCUELA RURAL MIXTA AWA MAKNA UNIÓN LA DORADA,0.34314,-76.91124,arcgis,street,97.71,"CP LA DORADA, San Miguel, Putumayo, Colombia",7.016164171233198,compare,0.305556,-76.860556,Putumayo,San Miguel,MATCH,MATCH,Putumayo,San Miguel,MATCH,MATCH,KEEP_ORIGINAL
COL,215790000346,ESCUELA SANTA BARBARA,5.88402,-72.79457,arcgis,street,100.0,"VDA SANTA BARBARA, Tasco, Boyacá, Colombia",120.49648150459834,compare,5.02111,-73.45306,Boyacá,Tasco,MATCH,MATCH,Boyacá,Sutatenza,MATCH,MISMATCH,FLAG
COL,215798000051,ESCUELA CORA CHIQUITO,5.070642635529,-73.425113000853,arcgis,uncertain,82.35,"VDA CORA CHIQUITO, Tenza, Boyacá, Colombia",6.318058911981528,compare,5.02111,-73.45306,Boyacá,Tenza,MATCH,MATCH,Boyacá,Sutatenza,MATCH,MISMATCH,FLAG
COL,217013000947,ESCUELA RURAL CULEBRAL,5.596532952706,-75.449658429222,arcgis,uncertain,86.25,"VDA CULEBRAL, Aguadas, Caldas, Colombia",6.0257422466668356,compare,5.604722,-75.395833,Caldas,Aguadas,MATCH,MATCH,Caldas,Aguadas,MATCH,MATCH,FLAG
COL,217013001111,INSTITUCIÓN EDUCATIVA VIBORAL,5.57522,-75.47204,arcgis,uncertain,82.82,"VDA VIBORAL FINC VIBORAL VDA VIBORAL, Aguadas, Caldas, Colombia",10.640755455284024,compare,5.586667,-75.5675,Caldas,Aguadas,MATCH,MATCH,Caldas,Aguadas,MATCH,MATCH,FLAG
COL,217541000711,ESCUELA RURAL SANTA TERESITA,5.44583,-75.10518,arcgis,centroid,90.84,"C SAN DANIEL VDA SANTA TERESA, Pensilvania, Caldas, Colombia",100.28126712589315,compare,5.44554,-76.01112,Caldas,Pensilvania,MATCH,MATCH,Risaralda,Mistrató,MISMATCH,MISMATCH,FLAG
COL,208606000154,SEDE PRINCIPAL CIEN PESOS,10.51666,-75.23326,arcgis,street,98.82,"C CIEN PESOS, Repelón, Atlántico, Colombia",12.703416861049917,compare,10.49680012,-75.11883637,Atlántico,Repelón,MATCH,MATCH,Atlántico,Repelón,MATCH,MATCH,KEEP_ORIGINAL
COL,213006001347,SEDE LLAVE SUR,8.622326098316,-74.477143076709,arcgis,uncertain,80.0,"VDA CALLE PRINCIPAL FINC LLAVE SUR, Achí, Bolívar, Colombia",13.753579962939707,compare,8.67139,-74.59199,Bolívar,Achí,MATCH,MATCH,Sucre,Majagual,MISMATCH,MISMATCH,FLAG
COL,213688800025,LA SERRANÍA,7.772676004885,-74.262601064641,arcgis,uncertain,87.91,"VDA LA SERRANIA, Santa Rosa del Sur, Bolívar, Colombia",0.0,compare,7.772676004885,-74.262601064641,Bolívar,Santa Rosa del Sur,MATCH,MATCH,Bolívar,Santa Rosa del Sur,MATCH,MATCH,FLAG
COL,213430001039,SEDE SANTA PABLA PABLA,8.8617,-74.48488,arcgis,street,96.41,"C SANTA PABLA, Magangué, Bolívar, Colombia",,fill,,,Bolívar,Magangué,MATCH,MATCH,,,NO_DATA,NO_DATA,ACCEPT
COL,213430001829,INSTITUCIÓN EDUCATIVA NUESTRA SEÑORA DEL CARMEN DE BARBOSA,9.0199235,-74.6370871,arcgis,street,98.71,"C BARBOSA, Magangué, Bolívar, Colombia",,fill,,,Bolívar,Magangué,MATCH,MATCH,,,NO_DATA,NO_DATA,ACCEPT
COL,205837002657,ESCUELA RURAL MATA DE PLÁTANO,8.37173,-76.48465,arcgis,uncertain,88.91,"VDA SAN JOSE DE MULATOS VIA NECOCLI, Turbo, Antioquia, Colombia",0.0,compare,8.37173,-76.48465,Antioquia,Turbo,MATCH,MATCH,Antioquia,Turbo,MATCH,MATCH,FLAG
COL,205837002746,ESCUELA RURAL SANTA CRUZ DEL CEDRO,8.37173,-76.48465,arcgis,uncertain,84.91,"C SAN JOSE DE MULATOS VDA SANTA CRUZ DEL CEDRO, Turbo, Antioquia, Colombia",40.91528139135407,compare,8.09354,-76.728,Antioquia,Turbo,MATCH,MATCH,Antioquia,Turbo,MATCH,MATCH,FLAG
COL,205837003360,ESCUELA RURAL PUYA ABAJO,8.36257,-76.45948,arcgis,uncertain,86.71,"VDA PUYA ABAJO, Turbo, Antioquia, Colombia",50.36442697579141,compare,7.99,-76.7197,Antioquia,Turbo,MATCH,MATCH,Antioquia,Turbo,MATCH,MATCH,FLAG
COL,205837003408,ESCUELA RURAL UMBITO ARRIBA,8.41673,-76.44699,arcgis,uncertain,86.11,"COM VEREDA UMBITO ARRIBA, Turbo, Antioquia, Colombia",56.145699792707305,compare,7.99,-76.7197,Antioquia,Necoclí,MATCH,MISMATCH,Antioquia,Turbo,MATCH,MATCH,FLAG
COL,205837003505,ESCUELA RURAL RIO TURBO ABAJO,8.69377,-76.37107,arcgis,uncertain,84.74,"VDA NUEVA FLORIDA KM 4 VIA NECOCLI, Turbo, Antioquia, Colombia",87.14981711324977,compare,7.99,-76.7197,Antioquia,Arboletes,MATCH,MISMATCH,Antioquia,Turbo,MATCH,MATCH,FLAG
COL,205837003653,ESCUELA RURAL SANTA BARBARA ARRIBA,8.19524,-76.5985,arcgis,centroid,93.47,"VDA SANTA BARBARA ARRIBA, Turbo, Antioquia, Colombia",29.036502915090725,compare,7.96111,-76.7153,Antioquia,Turbo,MATCH,MATCH,Antioquia,Turbo,MATCH,MATCH,KEEP_ORIGINAL
COL,205837003912,ESCUELA RURAL PITA ARRIBA,8.28736,-76.56608,arcgis,street,99.62,"VDA PITA ARRIBA, Turbo, Antioquia, Colombia",37.137948055052846,compare,7.99,-76.7197,Antioquia,Turbo,MATCH,MATCH,Antioquia,Turbo,MATCH,MATCH,KEEP_ORIGINAL
COL,205837004064,ESCUELA RURAL SAN ANDRES,8.21908,-76.57617,arcgis,street,100.0,"VDA SAN ANDRES, Turbo, Antioquia, Colombia",29.97503210420131,compare,7.99,-76.7197,Antioquia,Turbo,MATCH,MATCH,Antioquia,Turbo,MATCH,MATCH,KEEP_ORIGINAL
COL,205847000211,CENTRO EDUCATIVO RURAL CRESPO GARCIA,7.08389,-75.7764,arcgis,uncertain,84.86,"VDA LA HONDA ARRIBA KM 12, Urrao, Antioquia, Colombia",97.24263159888558,compare,6.28333,-76.1308,Antioquia,Ituango,MATCH,MISMATCH,Antioquia,Urrao,MATCH,MATCH,FLAG
COL,205847000393,CENTRO EDUCATIVO RURAL LA PRIMAVERA,6.35666,-75.48045,arcgis,uncertain,86.66,"VDA SALADO ARRIBA, Urrao, Antioquia, Colombia",72.3371486711485,compare,6.28333,-76.1308,Antioquia,Copacabana,MATCH,MISMATCH,Antioquia,Urrao,MATCH,MATCH,FLAG
COL,205847000521,CENTRO EDUCATIVO RURAL MANDECITO,6.335667635231,-76.260340123932,arcgis,uncertain,85.88,"COM MANDECITO, Urrao, Antioquia, Colombia",15.454573617573457,compare,6.28333,-76.1308,Antioquia,Urrao,MATCH,MATCH,Antioquia,Urrao,MATCH,MATCH,FLAG
COL,205847000555,CENTRO EDUCATIVO RURAL PIEDRAS BLANCAS,7.74392,-76.54988,arcgis,centroid,93.92,"VDA PIEDRAS BLANCAS, Urrao, Antioquia, Colombia",159.4532564314619,compare,6.33611,-76.275,Antioquia,Carepa,MATCH,MISMATCH,Antioquia,Urrao,MATCH,MATCH,KEEP_ORIGINAL
COL,205847000784,CENTRO EDUCATIVO RURAL ESMERALDA,6.154,-76.05674,arcgis,street,100.0,"VDA SANTA ISABEL, Urrao, Antioquia, Colombia",31.497369586657044,compare,6.33611,-76.275,Antioquia,Urrao,MATCH,MATCH,Antioquia,Urrao,MATCH,MATCH,KEEP_ORIGINAL
COL,205847000954,CENTRO EDUCATIVO RURAL LA QUIEBRA,5.67845,-75.12955,arcgis,uncertain,83.9,"VDA LA QUIEBRA FINC LA QUIEBRA VDA LA QUIEBRA, Urrao, Antioquia, Colombia",129.55461469161983,compare,6.28333,-76.1308,Antioquia,Argelia,MATCH,MISMATCH,Antioquia,Urrao,MATCH,MATCH,FLAG
COL,205847000962,CENTRO EDUCATIVO RURAL MARIA AUXILIADORA,6.335667635231,-76.260340123932,arcgis,uncertain,82.56,"VDA NENDO FINC NENDO, Urrao, Antioquia, Colombia",1.6208937395842038,compare,6.33611,-76.275,Antioquia,Urrao,MATCH,MATCH,Antioquia,Urrao,MATCH,MATCH,FLAG
COL,205847001187,CENTRO EDUCATIVO RURAL LA SEXTA,6.335667635231,-76.260340123932,arcgis,uncertain,87.5,"VDA LA SEXTA, Urrao, Antioquia, Colombia",15.454573617573457,compare,6.28333,-76.1308,Antioquia,Urrao,MATCH,MATCH,Antioquia,Urrao,MATCH,MATCH,FLAG
COL,205847001241,CENTRO EDUCATIVO RURAL VENADOS ARRIBA,6.55,-76.30726,arcgis,uncertain,87.54,"VDA VENADOS ARRIBA, Urrao, Antioquia, Colombia",24.04910894341591,compare,6.33611,-76.275,Antioquia,Frontino,MATCH,MISMATCH,Antioquia,Urrao,MATCH,MATCH,FLAG
COL,218001000352,ESCUELA LAS HERMOSAS,1.73047,-75.54861,arcgis,uncertain,88.93,"C SANTANA DE LAS HERMOSAS VDA LAS HERMOSAS, Florencia, Caquetá, Colombia",5.149548685505901,compare,1.735,-75.5025,Caquetá,Florencia,MATCH,MATCH,Caquetá,Florencia,MATCH,MATCH,FLAG
COL,205284001002,CENTRO EDUCATIVO RURAL INDIGENISTA CAÑAVERAL,7.17446,-74.59178,arcgis,uncertain,85.92,"COM CAÑAVERALES VDA CAÑAVERALES, Frontino, Antioquia, Colombia",199.25132986540495,compare,6.69222,-76.3303,Antioquia,Remedios,MATCH,MISMATCH,Antioquia,Frontino,MATCH,MATCH,FLAG
COL,205284001011,CENTRO EDUCATIVO RURAL INDÍGENA GENATURADO MURRI,6.74376,-76.36786,arcgis,uncertain,87.91,"VDA JENATURADO MURRI, Frontino, Antioquia, Colombia",7.074496198811847,compare,6.69222,-76.3303,Antioquia,Frontino,MATCH,MATCH,Antioquia,Frontino,MATCH,MATCH,FLAG
COL,205284001223,CENTRO EDUCATIVO RURAL INDIGENISTA QUIPARADO BAJO,6.685073148165,-76.335360362772,arcgis,uncertain,80.0,"VDA QUIPARADO BAJO VDA COMUNIDAD, Frontino, Antioquia, Colombia",4.60787236952431,compare,6.64503,-76.3461,Antioquia,Frontino,MATCH,MATCH,Antioquia,Frontino,MATCH,MATCH,FLAG
COL,220001000471,ESCUELA INDIGINA SEYUMUKE,10.468258403547,-73.587855720255,arcgis,uncertain,87.43,"VDA SEYUMAKE, Pueblo Bello, Cesar, Colombia",10.024902394315252,compare,10.48147,-73.67855,Cesar,Pueblo Bello,MATCH,MATCH,Magdalena,Fundación,MISMATCH,MISMATCH,FLAG
COL,220001000730,CENTRO EDUCATIVO SEYKUTUN DE FERWRWA,10.468258403547,-73.587855720255,arcgis,centroid,92.0,"C YERWA, Pueblo Bello, Cesar, Colombia",7.036739644792283,compare,10.48966,-73.64842,Cesar,Pueblo Bello,MATCH,MATCH,Magdalena,Fundación,MISMATCH,MISMATCH,FLAG
COL,220001001124,ESCUELA NUEVA HATICO 2,10.7,-73.33331,arcgis,centroid,93.53,"CAS HATICO 2, Valledupar, Cesar, Colombia",25.831366893350086,compare,10.4733,-73.2817,Cesar,Valledupar,MATCH,MATCH,Cesar,Valledupar,MATCH,MATCH,KEEP_ORIGINAL
COL,220001001311,ESCUELAL MIXTA SABANITA,10.3795552,-73.3775174,arcgis,uncertain,88.05,"C AZUCAR BUENA VDA SABANITAS, Valledupar, Cesar, Colombia",3.990089233154273,compare,10.41514084,-73.37282465,Cesar,Valledupar,MATCH,MATCH,Cesar,Valledupar,MATCH,MATCH,FLAG
COL,220175017879,SEDE TIERRA GRATA,9.2559,-73.81427,arcgis,uncertain,82.86,"C VEREDA TIERRA GRATA, Chimichagua, Cesar, Colombia",0.0,compare,9.2559,-73.81427,Cesar,Chimichagua,MATCH,MATCH,Cesar,Chimichagua,MATCH,MATCH,FLAG
COL,220175018131,ESCUELA TRES BOCAS,9.32585,-73.81697,arcgis,street,96.67,"VDA TRES BOCAS, Chimichagua, Cesar, Colombia",0.0,compare,9.32585,-73.81697,Cesar,Chimichagua,MATCH,MATCH,Cesar,Chimichagua,MATCH,MATCH,KEEP_ORIGINAL
COL,220175018221,ESCUELA NUEVA LA VICTORIA,9.32199,-73.83922,arcgis,street,96.76,"VDA LA VICTORIA, Chimichagua, Cesar, Colombia",0.0,compare,9.32199,-73.83922,Cesar,Chimichagua,MATCH,MATCH,Cesar,Chimichagua,MATCH,MATCH,KEEP_ORIGINAL
COL,220178000012,ESCUELA NUEVA LOS MARTINEZ,9.427095315548,-73.549619544115,arcgis,uncertain,84.86,"VDA LOS MARTINEZ, Chiriguaná, Cesar, Colombia",7.9956238333160465,compare,9.394982264,-73.48440457,Cesar,Chiriguaná,MATCH,MATCH,Cesar,Chiriguaná,MATCH,MATCH,FLAG
COL,220178000462,SEDE ALFONSO ARAGON,9.427095315548,-73.549619544115,arcgis,uncertain,84.86,"VDA MOCHILA BAJA, Chiriguaná, Cesar, Colombia",22.13963590341428,compare,9.409109554,-73.34861762,Cesar,Chiriguaná,MATCH,MATCH,Cesar,Chiriguaná,MATCH,MATCH,FLAG
COL,220178001060,SEDE NÚMERO 2,9.39722,-73.48722,arcgis,street,98.84,"C RINCONHONDO, Chiriguaná, Cesar, Colombia",0.39662212617702786,compare,9.394982264,-73.48440457,Cesar,Chiriguaná,MATCH,MATCH,Cesar,Chiriguaná,MATCH,MATCH,KEEP_ORIGINAL
COL,218150002163,MARIA LUISA DE MORENO,0.64898488208,-74.274542880762,arcgis,uncertain,84.44,"VDA MARIA LUISA DE MORENO, Cartagena del Chairá, Caquetá, Colombia",100.18531615245664,compare,1.36687,-74.819076,Caquetá,Cartagena del Chairá,MATCH,MATCH,Caquetá,Cartagena del Chairá,MATCH,MATCH,FLAG
COL,218150002180,ESCUELA MONTERREY,0.64898488208,-74.274542880762,arcgis,centroid,90.0,"VDA MONTEREY, Cartagena del Chairá, Caquetá, Colombia",100.18529284562007,compare,1.36686979,-74.81907593,Caquetá,Cartagena del Chairá,MATCH,MATCH,Caquetá,Cartagena del Chairá,MATCH,MATCH,KEEP_ORIGINAL
COL,218150002210,ESCUELA LOS LOBITOS,0.64898488208,-74.274542880762,arcgis,uncertain,88.7,"VDA LOS LOBITOS, Cartagena del Chairá, Caquetá, Colombia",94.9599536194212,compare,1.39337,-74.69318,Caquetá,Cartagena del Chairá,MATCH,MATCH,Caquetá,Cartagena del Chairá,MATCH,MATCH,FLAG
COL,218150002309,SEDE EL PRADO,0.64898488208,-74.274542880762,arcgis,centroid,90.7,"VDA EL PRADO, Cartagena del Chairá, Caquetá, Colombia",70.8669411299844,compare,1.058519444,-74.76292222,Caquetá,Cartagena del Chairá,MATCH,MATCH,Caquetá,Cartagena del Chairá,MATCH,MATCH,KEEP_ORIGINAL
COL,218150002350,JORDAN N1,0.64898488208,-74.274542880762,arcgis,centroid,90.0,"VDA JORDAN N1, Cartagena del Chairá, Caquetá, Colombia",99.65821899137275,compare,1.35,-74.833056,Caquetá,Cartagena del Chairá,MATCH,MATCH,Caquetá,Cartagena del Chairá,MATCH,MATCH,KEEP_ORIGINAL
COL,218150002553,ESCUELA LA INDEPENDENCIA,0.64898488208,-74.274542880762,arcgis,uncertain,85.88,"VDA LA INDEPENDENCIA, Cartagena del Chairá, Caquetá, Colombia",99.65821899137275,compare,1.35,-74.833056,Caquetá,Cartagena del Chairá,MATCH,MATCH,Caquetá,Cartagena del Chairá,MATCH,MATCH,FLAG
COL,144078001358,BUENOS AIRES,10.95892807928,-72.794826662924,arcgis,street,97.23,"KR 12 18 90 BR BUENOS AIRES, Barrancas, La Guajira, Colombia",0.0,compare,10.95892807928,-72.794826662924,La Guajira,Barrancas,MATCH,MATCH,La Guajira,Barrancas,MATCH,MATCH,KEEP_ORIGINAL
COL,144090800037,ESCUELA DIVINO NIÑO,11.2726011,-73.3089001,arcgis,uncertain,87.43,"C DIVINO NIÑO, Dibulla, La Guajira, Colombia",0.0,compare,11.2726011,-73.3089001,La Guajira,Dibulla,MATCH,MATCH,La Guajira,Dibulla,MATCH,MATCH,FLAG
COL,144279001194,ESCUELA RURAL DE JAGUEY,10.827837670238,-72.801435290507,arcgis,uncertain,89.09,"VDA JAGUEY, Fonseca, La Guajira, Colombia",0.0,compare,10.827837670238,-72.801435290507,La Guajira,Fonseca,MATCH,MATCH,La Guajira,Fonseca,MATCH,MATCH,FLAG
COL,147001052539,INSTITUCIÓN EDUCATIVA DISTRITAL 20 DE OCTUBRE SEDE 2 MONTERREY,11.223518348512,-74.152035755678,arcgis,street,99.6,"CL 35 73 68 BR 11 DE NOVIEMBRE, Santa Marta, Magdalena, Colombia",,fill,,,Magdalena,Santa Marta,MATCH,MATCH,,,NO_DATA,NO_DATA,ACCEPT
COL,147001052600,INSTITUCIÓN EDUCATIVA DISTRITAL NUEVO AMANECER CON DIOS,11.225421098569,-74.149096243183,arcgis,uncertain,89.11,"KR 78 27 72 BR TIMAYUI 2, Santa Marta, Magdalena, Colombia",0.0,compare,11.225421098569,-74.149096243183,Magdalena,Santa Marta,MATCH,MATCH,Magdalena,Santa Marta,MATCH,MATCH,FLAG
COL,147001053559,INSTITUCIÓN EDUCATIVA DISTRITAL QUINTO CENTENARIO DE SANTA MARTA,11.231341804951,-74.171844042918,arcgis,uncertain,84.15,"TV KILOMETRO 13 1 BR VIA ALTERNA, Santa Marta, Magdalena, Colombia",3.8203664767703223,compare,11.198202,-74.181086,Magdalena,Santa Marta,MATCH,MATCH,Magdalena,Santa Marta,MATCH,MATCH,FLAG
COL,147001800346,SEDE 05 LOS CARDONALES,11.245544881508,-74.166987367329,arcgis,uncertain,85.87,"KR 58 24B 118 BR LOS CARDONALES, Santa Marta, Magdalena, Colombia",0.0,compare,11.245544881508,-74.166987367329,Magdalena,Santa Marta,MATCH,MATCH,Magdalena,Santa Marta,MATCH,MATCH,FLAG
COL,147001800354,SEDE 03 ALTOS DE BUENOS AIRES,10.53331,-74.18329,arcgis,uncertain,80.26,"CM ALTO DE BUENOS AIRES AV CASA 65 39, Santa Marta, Magdalena, Colombia",0.0,compare,10.53331,-74.18329,Magdalena,Aracataca,MATCH,MISMATCH,Magdalena,Aracataca,MATCH,MISMATCH,FLAG
COL,147001800362,SEDE 04 ALTOS DE VILLA CONCHA,11.3,-74.15,arcgis,uncertain,88.7,"CAS ALTOS VILLA CONCHA, Santa Marta, Magdalena, Colombia",,fill,0.0,-74.1745501,,,NO_DATA,NO_DATA,,,NO_DATA,NO_DATA,REJECT
COL,215804000387,ESCUELA SAN CRISTÓBAL,5.6097,-72.95433,arcgis,centroid,91.34,"VDA CHIGUATA, Tibaná, Boyacá, Colombia",53.53409108084254,compare,5.310278,-73.333056,Boyacá,Iza,MATCH,MISMATCH,Boyacá,Tibaná,MATCH,MATCH,KEEP_ORIGINAL
COL,213688800050,MINA CARACOLITO,7.772676004885,-74.262601064641,arcgis,uncertain,85.53,"VDA MINA CARACOLITO, Santa Rosa del Sur, Bolívar, Colombia",0.0,compare,7.772676004885,-74.262601064641,Bolívar,Santa Rosa del Sur,MATCH,MATCH,Bolívar,Santa Rosa del Sur,MATCH,MATCH,FLAG
COL,213688800068,LA PAZ,7.772676004885,-74.262601064641,arcgis,centroid,91.58,"VDA LA PAZ, Santa Rosa del Sur, Bolívar, Colombia",0.0,compare,7.772676004885,-74.262601064641,Bolívar,Santa Rosa del Sur,MATCH,MATCH,Bolívar,Santa Rosa del Sur,MATCH,MATCH,KEEP_ORIGINAL
COL,217444000341,INSTITUCIÓN EDUCATIVA ANTONIO MARIA HINCAPIE,5.3167,-75.01671,arcgis,street,98.89,"C SANTA ELENA, Marquetalia, Caldas, Colombia",,fill,,,Caldas,Marquetalia,MATCH,MATCH,,,NO_DATA,NO_DATA,ACCEPT
COL,215047000625,ESCUELA MOHAN,5.432383154449,-72.883620480822,arcgis,uncertain,81.9,"VDA VEREDA HATOLAGUNA, Aquitania, Boyacá, Colombia",9.557964456819676,compare,5.518333,-72.884722,Boyacá,Aquitania,MATCH,MATCH,Boyacá,Aquitania,MATCH,MATCH,FLAG
COL,208638800039,INSTITUCIÓN EDUCATIVA TÉCNICA DE LA PEÑA SEDE NO 2,10.580932168025,-75.01928600514,arcgis,centroid,92.85,"C CARRERA 4 N 19 02, Sabanalarga, Atlántico, Colombia",0.0,compare,10.580932168025,-75.01928600514,Atlántico,Sabanalarga,MATCH,MATCH,Atlántico,Sabanalarga,MATCH,MATCH,KEEP_ORIGINAL
COL,213006001576,SEDE CORONCORO,8.622326098316,-74.477143076709,arcgis,uncertain,80.0,"VDA CORONCORO CALLE PRINCIPAL, Achí, Bolívar, Colombia",13.496691307249977,compare,8.64775,-74.59719,Bolívar,Achí,MATCH,MATCH,Sucre,Majagual,MISMATCH,MISMATCH,FLAG
COL,213006001703,INSTITUCIÓN EDUCATIVA SANTA LUCIA SEDE SAN ANDRESITO,8.622326098316,-74.477143076709,arcgis,uncertain,82.35,"VDA SAN ANDRESITO, Achí, Bolívar, Colombia",82.05473161388478,compare,8.66582,-75.22226,Bolívar,Achí,MATCH,MATCH,Sucre,San Marcos,MISMATCH,MISMATCH,FLAG
COL,213160800015,SEDE EL PORVENIR,7.238785836611,-74.100948689557,arcgis,uncertain,87.78,"VDA PORVENIR, Cantagallo, Bolívar, Colombia",0.0,compare,7.238785836611,-74.100948689557,Bolívar,Cantagallo,MATCH,MATCH,Bolívar,Cantagallo,MATCH,MATCH,FLAG
COL,213160800023,SEDE PUERTO MINA,7.238785836611,-74.100948689557,arcgis,uncertain,86.32,"VDA PUERTO MINA, Cantagallo, Bolívar, Colombia",0.0,compare,7.238785836611,-74.100948689557,Bolívar,Cantagallo,MATCH,MATCH,Bolívar,Cantagallo,MATCH,MATCH,FLAG
COL,213160800031,SEDE LA FORTUNA,7.238785836611,-74.100948689557,arcgis,uncertain,87.03,"VDA LA FORTUNA, Cantagallo, Bolívar, Colombia",0.0,compare,7.238785836611,-74.100948689557,Bolívar,Cantagallo,MATCH,MATCH,Bolívar,Cantagallo,MATCH,MATCH,FLAG
COL,215516000160,ESCUELA CAÑOS,6.004036666667,-73.198616666667,arcgis,uncertain,88.15,"VDA CAÑOS, Paipa, Boyacá, Colombia",32.81239376099508,compare,5.736944,-73.0725,Santander,Gámbita,MISMATCH,MISMATCH,Boyacá,Paipa,MATCH,MATCH,REJECT
COL,215516000232,CENTRO EDUCATIVO SATIVA,5.54649,-73.71597,arcgis,uncertain,88.72,"VDA SATIVA, Paipa, Boyacá, Colombia",71.05682277663118,compare,5.778889,-73.117778,Boyacá,Tinjacá,MATCH,MISMATCH,Boyacá,Paipa,MATCH,MATCH,FLAG
COL,213430003406,SEDE PUERTO NARIÑO,9.2353968,-74.74586,arcgis,uncertain,84.21,"VDA PUERTO NARIÑO, Magangué, Bolívar, Colombia",,fill,,,Bolívar,Magangué,MATCH,MATCH,,,NO_DATA,NO_DATA,REJECT
COL,217614000111,ESCUELA RURAL EL CARMELO,5.42135,-75.70323,arcgis,uncertain,87.5,"COM CARMELO, Riosucio, Caldas, Colombia",8.254548780101494,compare,5.361667,-75.658889,Caldas,Riosucio,MATCH,MATCH,Caldas,Riosucio,MATCH,MATCH,FLAG
COL,205837004391,ESCUELA COLOMBIA LIBRE,8.09804,-76.73169,arcgis,uncertain,80.0,"C COMUNAL SAN JORGE VDA COMUNAL SAN JORGE, Turbo, Antioquia, Colombia",12.085812648941083,compare,7.99,-76.7197,Antioquia,Turbo,MATCH,MATCH,Antioquia,Turbo,MATCH,MATCH,FLAG
COL,205837004421,ESCUELA RURAL MAKENCAL,8.09804,-76.73169,arcgis,uncertain,83.78,"C VEREDA MAKENCAL, Turbo, Antioquia, Colombia",12.085812648941083,compare,7.99,-76.7197,Antioquia,Turbo,MATCH,MATCH,Antioquia,Turbo,MATCH,MATCH,FLAG
COL,217662000026,ESCUELA LA TULIA,5.60002,-75.03327,arcgis,centroid,91.11,"VDA LA TULIA FLORENCIA SAMANA, Samaná, Caldas, Colombia",7.500075302930109,compare,5.533056,-75.041389,Caldas,Samaná,MATCH,MATCH,Caldas,Samaná,MATCH,MATCH,KEEP_ORIGINAL
COL,217662000085,ESCUELA NUEVA EL CONSUELO,5.39665,-75.04347,arcgis,street,100.0,"VDA EL CONSUELO, Samaná, Caldas, Colombia",105.29533868940912,compare,5.41582,-75.99445,Caldas,Samaná,MATCH,MATCH,Risaralda,Mistrató,MISMATCH,MISMATCH,FLAG
COL,217662000174,INSTITUCIÓN EDUCATIVA SAN GERARDO MARIA MAYELA,5.574599907328,-74.88886990864,arcgis,uncertain,88.03,"CL 8 3 4 BR LAS BRISAS, Norcasia, Caldas, Colombia",,fill,,,Caldas,Norcasia,MATCH,MATCH,,,NO_DATA,NO_DATA,REJECT
COL,217662000191,ESCUELA RURAL LA LINDA,5.67281,-74.90858,arcgis,street,100.0,"VDA LA LINDA, Samaná, Caldas, Colombia",0.4702660794209421,compare,5.674444,-74.9125,Caldas,Samaná,MATCH,MATCH,Caldas,Samaná,MATCH,MATCH,KEEP_ORIGINAL
COL,217662000361,SEDE GUADUALEJO,5.4604,-74.94982,arcgis,street,100.0,"VDA GUADUALEJO, Samaná, Caldas, Colombia",0.8718380427346154,compare,5.452778,-74.951667,Caldas,Samaná,MATCH,MATCH,Caldas,Samaná,MATCH,MATCH,KEEP_ORIGINAL
COL,217662000417,COLEGIO LA AURORA,5.433,-75.05102,arcgis,street,100.0,"VDA YARUMAL, Samaná, Caldas, Colombia",100.74663710650603,compare,5.42693,-75.96112,Caldas,Samaná,MATCH,MATCH,Risaralda,Mistrató,MISMATCH,MISMATCH,FLAG
COL,217662000468,ESCUELA RURAL KILÓMETRO 40,5.63811549722,-74.85475093812,arcgis,uncertain,84.44,"VDA KILOMETRO 40, Norcasia, Caldas, Colombia",8.566577353663513,compare,5.574444,-74.898333,Caldas,Norcasia,MATCH,MATCH,Caldas,Norcasia,MATCH,MATCH,FLAG
COL,218001000646,ESCUELA VILLA HERMOSA,1.62496,-75.7089,arcgis,uncertain,84.83,"C EL DANUBIO ORTEGUAZA VDA VILLA HERMOSA, Florencia, Caquetá, Colombia",0.9895908590291622,compare,1.624722,-75.7,Caquetá,Florencia,MATCH,MATCH,Caquetá,Florencia,MATCH,MATCH,FLAG
COL,218001002711,ESCUELA LOS ALPES,1.73047,-75.54861,arcgis,centroid,98.82,"C ORTEGUAZA, Florencia, Caquetá, Colombia",28.309550661665334,compare,1.481944444,-75.49333333,Caquetá,Florencia,MATCH,MATCH,Caquetá,Florencia,MATCH,MATCH,KEEP_ORIGINAL
COL,218001002886,SEDE EDUCATIVA EL CONDOR,1.6326,-75.68567,arcgis,street,96.67,"VDA LAS BRISAS, Florencia, Caquetá, Colombia",11.76483909092963,compare,1.531944444,-75.65305556,Caquetá,Florencia,MATCH,MATCH,Caquetá,Florencia,MATCH,MATCH,KEEP_ORIGINAL
COL,218001002991,ESCUELA RURAL LAS PERLAS,1.73047,-75.54861,arcgis,uncertain,87.81,"C ORTEGUAZA VDA LAS PERLAS, Florencia, Caquetá, Colombia",23.699341684950788,compare,1.94262,-75.52815,Caquetá,Florencia,MATCH,MATCH,Caquetá,Florencia,MATCH,MATCH,FLAG
COL,218001003262,ESCUELA EL PORTAL,1.27624,-75.26686,arcgis,uncertain,81.07,"VDA VEREDA EL PORTAL FINC EL PORTAL, Florencia, Caquetá, Colombia",53.67422428611118,compare,1.620277777,-75.60555556,Caquetá,La Montañita,MATCH,MISMATCH,Caquetá,Florencia,MATCH,MATCH,FLAG
COL,218001003595,ESCUELA BAJO SINAI,1.73047,-75.54861,arcgis,uncertain,87.81,"C ORTEGUAZA VDA BAJO SINAI, Florencia, Caquetá, Colombia",0.0,compare,1.73047,-75.54861,Caquetá,Florencia,MATCH,MATCH,Caquetá,Florencia,MATCH,MATCH,FLAG
COL,218001003699,SEDE ESCUELA RURAL NAZARETH,1.6175445,-75.6066955,arcgis,uncertain,87.43,"VDA NAZARETH, Florencia, Caquetá, Colombia",4.964045011637174,compare,1.639444445,-75.56777778,Caquetá,Florencia,MATCH,MATCH,Caquetá,Florencia,MATCH,MATCH,FLAG
COL,205250000121,CENTRO EDUCATIVO RURAL VILLA ABAJO,7.704953112293,-74.66050764261,arcgis,uncertain,85.95,"VDA VILLA ABAJO, El Bagre, Antioquia, Colombia",0.4565868153513094,compare,7.70222,-74.6636,Antioquia,El Bagre,MATCH,MATCH,Antioquia,El Bagre,MATCH,MATCH,FLAG
COL,205250000287,ESCUELA RURAL COMODATOS,7.58728,-74.79893,arcgis,uncertain,86.14,"KR 34 33 18 BR LOS COMODATOS, El Bagre, Antioquia, Colombia",19.641348345391364,compare,7.70222,-74.6636,Antioquia,El Bagre,MATCH,MATCH,Antioquia,El Bagre,MATCH,MATCH,FLAG
COL,205250001038,SALTO DEL TIGRE,6.85986,-74.79764,arcgis,uncertain,85.37,"VDA SALTO DEL TIGRE, El Bagre, Antioquia, Colombia",0.0,compare,6.85986,-74.79764,Antioquia,Vegachí,MATCH,MISMATCH,Antioquia,Vegachí,MATCH,MISMATCH,FLAG
COL,205250001305,CENTRO EDUCATIVO RURAL EL CORAL,7.704953112293,-74.66050764261,arcgis,uncertain,88.24,"VDA EL CORAL, El Bagre, Antioquia, Colombia",0.0,compare,7.704953112293,-74.66050764261,Antioquia,El Bagre,MATCH,MATCH,Antioquia,El Bagre,MATCH,MATCH,FLAG
COL,205250001569,CENTRO EDUCATIVO RURAL SANTA BARBARITA,7.6668,-74.75001,arcgis,centroid,92.22,"VDA SANTA BARBARITA, El Bagre, Antioquia, Colombia",0.0,compare,7.6668,-74.75001,Antioquia,El Bagre,MATCH,MATCH,Antioquia,El Bagre,MATCH,MATCH,KEEP_ORIGINAL
COL,205250001712,CENTRO EDUCATIVO RURAL PINDORA,7.704953112293,-74.66050764261,arcgis,uncertain,82.33,"CT VEREDA FINC PINDORA, El Bagre, Antioquia, Colombia",0.0,compare,7.704953112293,-74.66050764261,Antioquia,El Bagre,MATCH,MATCH,Antioquia,El Bagre,MATCH,MATCH,FLAG
COL,205490001272,ESCUELA RURAL AGUAS VIVAS,8.5488,-76.66713,arcgis,uncertain,87.2,"C EL MELLITO VDA AGUAS VIVAS, Necoclí, Antioquia, Colombia",10.602188513850756,compare,8.51778,-76.7583,Antioquia,Necoclí,MATCH,MATCH,Antioquia,Necoclí,MATCH,MATCH,FLAG
COL,205284001312,CENTRO EDUCATIVO RURAL INDIGENISTA JULIO GRANDE AMOR LA MARINA,6.685073148165,-76.335360362772,arcgis,uncertain,80.0,"VDA JULIO GRANDE AMOR LA MARINA, Frontino, Antioquia, Colombia",0.9715240781703521,compare,6.69222,-76.3303,Antioquia,Frontino,MATCH,MATCH,Antioquia,Frontino,MATCH,MATCH,FLAG
COL,205284001444,CENTRO EDUCATIVO RURAL LA QUIEBRA,5.67845,-75.12955,arcgis,uncertain,87.41,"VDA LA QUIEBRA KM 60, Frontino, Antioquia, Colombia",174.1453588523666,compare,6.69222,-76.3303,Antioquia,Argelia,MATCH,MISMATCH,Antioquia,Frontino,MATCH,MATCH,FLAG
COL,205284001452,CENTRO EDUCATIVO RURAL INDÍGENA CALICHE,6.685073148165,-76.335360362772,arcgis,uncertain,88.57,"VDA CALICHE, Frontino, Antioquia, Colombia",4.60787236952431,compare,6.64503,-76.3461,Antioquia,Frontino,MATCH,MATCH,Antioquia,Frontino,MATCH,MATCH,FLAG
COL,205284001461,CENTRO EDUCATIVO RURAL INDIGENISTA AMPARRADO ZHAKIANANDAU,6.685073148165,-76.335360362772,arcgis,uncertain,84.39,"VDA AMPARRADO ALTO, Frontino, Antioquia, Colombia",0.9715240781703521,compare,6.69222,-76.3303,Antioquia,Frontino,MATCH,MATCH,Antioquia,Frontino,MATCH,MATCH,FLAG
COL,205284001487,CENTRO EDUCATIVO RURAL EL RAYO,8.1372,-76.38963,arcgis,uncertain,86.49,"VDA EL RAYO KM 30, Frontino, Antioquia, Colombia",160.8075653616353,compare,6.69222,-76.3303,Antioquia,San Pedro de Urabá,MATCH,MISMATCH,Antioquia,Frontino,MATCH,MATCH,FLAG
COL,205284001550,ESCUELA RURAL JOSE MARIA RODRIGUEZ ROJAS,6.685073148165,-76.335360362772,arcgis,uncertain,88.57,"VDA EL BORDO, Frontino, Antioquia, Colombia",118.12840415889438,compare,6.75414,-77.4028,Antioquia,Frontino,MATCH,MATCH,Chocó,Bahía Solano,MISMATCH,MISMATCH,FLAG
COL,205284001576,CENTRO EDUCATIVO RURAL TEODORICO BRAN TAMAYO,6.80474,-76.24767,arcgis,uncertain,85.88,"VDA LA SIBERIA KM 12 VI NUTIBARA, Frontino, Antioquia, Colombia",15.485338653734928,compare,6.69222,-76.3303,Antioquia,Frontino,MATCH,MATCH,Antioquia,Frontino,MATCH,MATCH,FLAG
COL,205284001711,CENTRO EDUCATIVO RURAL LA ÑAME,6.67701,-76.31413,arcgis,uncertain,88.44,"VDA CERRAZON PARTE BAJA, Frontino, Antioquia, Colombia",0.0,compare,6.67701,-76.31413,Antioquia,Frontino,MATCH,MATCH,Antioquia,Frontino,MATCH,MATCH,FLAG
COL,205284001720,CENTRO EDUCATIVO RURAL LA CERRAZON,6.74376,-76.36786,arcgis,uncertain,82.0,"VDA CERRAZON PARTE ALTA VI FRONTINO CORRGIMIENTO MURRI, Frontino, Antioquia, Colombia",0.0,compare,6.74376,-76.36786,Antioquia,Frontino,MATCH,MATCH,Antioquia,Frontino,MATCH,MATCH,FLAG
COL,220178001434,SEDE RANCHO CLARO,9.427095315548,-73.549619544115,arcgis,uncertain,84.86,"VDA RANCHO CLARO, Chiriguaná, Cesar, Colombia",22.148393274988432,compare,9.409031083,-73.34854471,Cesar,Chiriguaná,MATCH,MATCH,Cesar,Chiriguaná,MATCH,MATCH,FLAG
COL,219397000780,ESCUELA RURAL MIXTA LA PALMA O MIRADOR,2.0906,-76.74965,arcgis,centroid,90.44,"VDA LA PALMA O MIRADOR, La Vega, Cauca, Colombia",4.559174257290391,compare,2.122322266,-76.7756451,Cauca,La Vega,MATCH,MATCH,Cauca,La Vega,MATCH,MATCH,KEEP_ORIGINAL
COL,219397000909,ESCUELA RURAL MIXTA LAS JUNTAS,2.08826,-76.77197,arcgis,street,100.0,"VDA LAS JUNTAS, La Vega, Cauca, Colombia",3.8083135176461536,compare,2.122315814,-76.77560489,Cauca,La Vega,MATCH,MATCH,Cauca,La Vega,MATCH,MATCH,KEEP_ORIGINAL
COL,219397000968,ESCUELA RURAL MIXTA LA PINTADA,2.10609,-76.76062,arcgis,street,100.0,"VDA LA PINTADA, La Vega, Cauca, Colombia",2.4606482732230313,compare,2.122324947,-76.77566771,Cauca,La Vega,MATCH,MATCH,Cauca,La Vega,MATCH,MATCH,KEEP_ORIGINAL
COL,219397001026,ESCUELA RURAL MIXTA GARAY,2.121615659968,-76.775317442033,arcgis,centroid,93.01,"VDA GARAY, La Vega, Cauca, Colombia",0.08457161864384523,compare,2.122305229,-76.77563854,Cauca,La Vega,MATCH,MATCH,Cauca,La Vega,MATCH,MATCH,KEEP_ORIGINAL
COL,152621001277,ESCUELA SAGRADO CORAZÓN DE JESUS,1.1897371,-77.2632015,arcgis,uncertain,80.67,"AC EL PORVENIR 03 35 BR EL PORVENIR, Roberto Payán, Nariño, Colombia",0.0,compare,1.1897371,-77.2632015,Nariño,Pasto,MATCH,MISMATCH,Nariño,Pasto,MATCH,MISMATCH,FLAG
COL,154001007791,COLEGIO LUIS CARLOS GALÁN SARMIENTO,7.872429454174,-72.500663289102,arcgis,street,96.35,"CL 26 0 63 BR SAN RAFAEL, Cúcuta, Norte de Santander, Colombia",0.0,compare,7.872429454174,-72.500663289102,Norte de Santander,San José de Cúcuta,MATCH,MISMATCH,Norte de Santander,San José de Cúcuta,MATCH,MISMATCH,FLAG
COL,213744002081,NUEVO HORIZONTE,8.86665,-74.36663,arcgis,uncertain,89.62,"VDA NUEVO HORIZONTE, Simití, Bolívar, Colombia",0.0,compare,8.86665,-74.36663,Bolívar,Pinillos,MATCH,MISMATCH,Bolívar,Pinillos,MATCH,MISMATCH,FLAG
COL,215087000164,ESCUELA SAN JOSE DE LA MONTAÑA,6.823512436138,-75.678145118054,arcgis,uncertain,85.14,"VDA SAN JOSE DE LA MONTAÑA, Belén, Boyacá, Colombia",322.2946136356001,compare,6.014722,-72.877222,Antioquia,San José de la Montaña,MISMATCH,MISMATCH,Boyacá,Belén,MATCH,MATCH,REJECT
COL,215087000199,ESCUELA EL CARRIZAL,5.59831,-73.60582,arcgis,centroid,92.4,"VDA CARRIZAL, Belén, Boyacá, Colombia",92.95377821036016,compare,6.014722,-72.877222,Boyacá,Sutamarchán,MATCH,MISMATCH,Boyacá,Belén,MATCH,MATCH,KEEP_ORIGINAL
COL,215092000024,ESCUELA LAS PUENTES,5.90861,-72.86626,arcgis,street,96.25,"VDA OTENGÁ, Betéitiva, Boyacá, Colombia",4.893363325118334,compare,5.922222,-72.908333,Boyacá,Betéitiva,MATCH,MATCH,Boyacá,Betéitiva,MATCH,MATCH,KEEP_ORIGINAL
COL,215092000059,ESCUELA VILLAFRANCA,5.94396,-72.79845,arcgis,street,95.76,"VDA VILLAFRANCA, Betéitiva, Boyacá, Colombia",12.391028836737606,compare,5.922222,-72.908333,Boyacá,Betéitiva,MATCH,MATCH,Boyacá,Betéitiva,MATCH,MATCH,KEEP_ORIGINAL
COL,215092000083,ESCUELA RURAL SOIQUIA,5.921001902503,-72.848618180969,arcgis,uncertain,87.88,"VDA SOIQUIA, Betéitiva, Boyacá, Colombia",6.6059470641533125,compare,5.922222,-72.908333,Boyacá,Betéitiva,MATCH,MATCH,Boyacá,Betéitiva,MATCH,MATCH,FLAG
COL,215368000031,ESCUELA PUEBLO VIEJO,6.13235,-72.53086,arcgis,street,96.47,"VDA PUEBLO VIEJO, Jericó, Boyacá, Colombia",1.9716586420232733,compare,6.14943,-72.52607,Boyacá,Jericó,MATCH,MATCH,Boyacá,Jericó,MATCH,MATCH,KEEP_ORIGINAL
COL,215469000130,ESCUELA LA HOYA,5.88009,-73.51079,arcgis,street,100.0,"VDA LA HOYA, Moniquirá, Boyacá, Colombia",10.28738825998971,compare,5.910556,-73.598611,Boyacá,Moniquirá,MATCH,MATCH,Boyacá,Moniquirá,MATCH,MATCH,KEEP_ORIGINAL
COL,215469000181,ESCUELA COPER,5.862516906204,-73.559313754713,arcgis,uncertain,80.0,"VDA VEREDA COPER 12 KL VIA SANTA SOFIA, Moniquirá, Boyacá, Colombia",6.334218681431467,compare,5.805556,-73.56,Boyacá,Moniquirá,MATCH,MATCH,Boyacá,Moniquirá,MATCH,MATCH,FLAG
COL,215469000245,ESCUELA DANILO DE JESUS PINILLA MONROY,5.862516906204,-73.559313754713,arcgis,uncertain,88.75,"VDA AJIZAL, Moniquirá, Boyacá, Colombia",6.334218681431467,compare,5.805556,-73.56,Boyacá,Moniquirá,MATCH,MATCH,Boyacá,Moniquirá,MATCH,MATCH,FLAG
COL,215516000275,CENTRO EDUCATIVO ALTO PLATEADO,6.004036666667,-73.198616666667,arcgis,uncertain,83.75,"VDA PASTOREROS, Paipa, Boyacá, Colombia",26.584077535509213,compare,5.778889,-73.117778,Santander,Gámbita,MISMATCH,MISMATCH,Boyacá,Paipa,MATCH,MATCH,REJECT
COL,215516000283,ESCUELA CRUZ DE MURCIA,5.90189,-73.23746,arcgis,uncertain,85.38,"VDA CRUZ DE MURCIA, Paipa, Boyacá, Colombia",25.850743456528917,compare,5.737222,-73.0725,Santander,Gámbita,MISMATCH,MISMATCH,Boyacá,Paipa,MATCH,MATCH,REJECT
COL,215516000305,INSTITUCIÓN EDUCATIVA TÉCNICA PANTANO DE VARGAS,5.744483278628,-73.067736304842,arcgis,street,97.16,"VDA PANTANO DE VARGAS, Paipa, Boyacá, Colombia",0.9642074823762717,compare,5.737222,-73.0725,Boyacá,Paipa,MATCH,MATCH,Boyacá,Paipa,MATCH,MATCH,KEEP_ORIGINAL
COL,215516000593,ESCUELA EL CHITAL,5.9666468,-72.9708719,arcgis,centroid,91.93,"VDA CHITAL, Paipa, Boyacá, Colombia",27.90622081061233,compare,5.736944,-73.0725,Boyacá,Cerinza,MATCH,MISMATCH,Boyacá,Paipa,MATCH,MATCH,KEEP_ORIGINAL
COL,215522000023,ESCUELA ORGONIGA,6.443732056822,-72.461714238356,arcgis,uncertain,86.67,"VDA ORGONIGA, Panqueba, Boyacá, Colombia",0.1592634011369129,compare,6.443611,-72.460278,Boyacá,Panqueba,MATCH,MATCH,Boyacá,Panqueba,MATCH,MATCH,FLAG
COL,215522000091,ESCUELA ARRAYANAL,6.46547,-72.46151,arcgis,street,96.47,"VDA ARRAYANAL, Panqueba, Boyacá, Colombia",2.434418654144142,compare,6.443611,-72.460278,Boyacá,Panqueba,MATCH,MATCH,Boyacá,Panqueba,MATCH,MATCH,KEEP_ORIGINAL
COL,217662000514,ESCUELA RURAL ALEJANDRIA,5.47533,-75.22959,arcgis,centroid,92.2,"VDA LA ALEJANDRIA, Samaná, Caldas, Colombia",27.59117577590414,compare,5.5875,-75.007222,Caldas,Pensilvania,MATCH,MISMATCH,Caldas,Samaná,MATCH,MATCH,KEEP_ORIGINAL
COL,217662000671,ESCUELA BUENA VISTA BAJA,5.58492,-75.08765,arcgis,street,99.0,"VDA BUENA VISTA BAJA, Samaná, Caldas, Colombia",82.56269704268409,compare,5.60832,-75.83334,Caldas,Samaná,MATCH,MATCH,Antioquia,Jardín,MISMATCH,MISMATCH,FLAG
COL,205376000169,CENTRO EDUCATIVO RURAL SALVADOR BERMUDEZ,6.0320378,-75.3799284,arcgis,street,96.57,"VDA SAN MIGUEL, La Ceja, Antioquia, Colombia",0.4290770527547689,compare,6.033889,-75.383333,Antioquia,La Ceja,MATCH,MATCH,Antioquia,La Ceja,MATCH,MATCH,KEEP_ORIGINAL
COL,205376000177,CENTRO EDUCATIVO RURAL LAS COLMENAS,5.92871,-75.42938,arcgis,centroid,93.02,"VDA COMENAS, La Ceja, Antioquia, Colombia",12.755916464831532,compare,6.033889,-75.383333,Antioquia,La Ceja,MATCH,MATCH,Antioquia,La Ceja,MATCH,MATCH,KEEP_ORIGINAL
COL,218001004064,SEDE ALTOS DE COPOAZU,1.60038,-75.64364,arcgis,uncertain,87.91,"C SANTO DOMINGO KM 5 VIA MORELIA, Florencia, Caquetá, Colombia",12.815242879934228,compare,1.715556,-75.647778,Caquetá,Florencia,MATCH,MATCH,Caquetá,Florencia,MATCH,MATCH,FLAG
COL,205475000553,BACHIDUBY,6.828740605397,-76.708689633794,arcgis,uncertain,86.67,"VDA BACHIDUBI, Murindó, Antioquia, Colombia",0.0,compare,6.828740605397,-76.708689633794,Antioquia,Murindó,MATCH,MATCH,Antioquia,Murindó,MATCH,MATCH,FLAG
COL,205490001507,CENTRO EDUCATIVO RURAL CIELO AZUL,8.3121,-76.6187,arcgis,centroid,91.78,"VDA CIELO AZUL VDA CIELO AZUL, Necoclí, Antioquia, Colombia",20.999073282937417,compare,8.49306,-76.6733,Antioquia,Turbo,MATCH,MISMATCH,Antioquia,Necoclí,MATCH,MATCH,KEEP_ORIGINAL
COL,205490001515,ESCUELA RURAL ALONSO DE OJEDA,8.40227,-76.61612,arcgis,street,98.65,"VDA LA CULEBREADA, Necoclí, Antioquia, Colombia",11.89412290183642,compare,8.49306,-76.6733,Antioquia,Necoclí,MATCH,MATCH,Antioquia,Necoclí,MATCH,MATCH,KEEP_ORIGINAL
COL,205490001639,INSTITUCIÓN EDUCATIVA RURAL INDIGENISTA JOSE ELÍAS SUAREZ,8.42321,-76.78497,arcgis,uncertain,80.0,"VDA RESGUARDO INDIGENA EL VOLAO, Necoclí, Antioquia, Colombia",28.99299201083675,compare,8.551667,-76.555556,Antioquia,Necoclí,MATCH,MATCH,Antioquia,Necoclí,MATCH,MATCH,FLAG
COL,205490001752,ESCUELA RURAL SANTA ISABEL,8.51667,-76.66667,arcgis,uncertain,89.79,"VDA MULATICOS CARIBIA, Necoclí, Antioquia, Colombia",12.82324650623029,compare,8.551667,-76.555556,Antioquia,Necoclí,MATCH,MATCH,Antioquia,Necoclí,MATCH,MATCH,FLAG
COL,205490001817,ESCUELA RURAL EL REPARO,8.42321,-76.78497,arcgis,uncertain,87.43,"VDA EL REPARO, Necoclí, Antioquia, Colombia",27.999391661351282,compare,8.481111,-76.537222,Antioquia,Necoclí,MATCH,MATCH,Antioquia,Necoclí,MATCH,MATCH,FLAG
COL,205490001884,ESCUELA RURAL SAN RAFAEL II,8.41712,-76.64359,arcgis,uncertain,88.91,"C PUEBLO NUEVO VDA SAN RAFAEL, Necoclí, Antioquia, Colombia",13.69312142358818,compare,8.481111,-76.537222,Antioquia,Necoclí,MATCH,MATCH,Antioquia,Necoclí,MATCH,MATCH,FLAG
COL,205490001957,CENTRO EDUCATIVO RURAL EL HOYITO,8.7914191,-76.5128058,arcgis,centroid,90.01,"VDA HOYITO, Necoclí, Antioquia, Colombia",37.57580332483825,compare,8.49306,-76.6733,Antioquia,San Juan de Urabá,MATCH,MISMATCH,Antioquia,Necoclí,MATCH,MATCH,KEEP_ORIGINAL
COL,205490002031,ESCUELA RURAL INTEGRADA LA YAYA,8.42321,-76.78497,arcgis,uncertain,89.09,"VDA LA YAYA, Necoclí, Antioquia, Colombia",14.531872368009532,compare,8.49306,-76.6733,Antioquia,Necoclí,MATCH,MATCH,Antioquia,Necoclí,MATCH,MATCH,FLAG
COL,205490002091,CENTRO EDUCATIVO RURAL NUEVO ORIENTE,8.504,-76.48512,arcgis,centroid,91.89,"VDA NUEVO ORIENTE, Necoclí, Antioquia, Colombia",20.730623131876893,compare,8.49306,-76.6733,Antioquia,Arboletes,MATCH,MISMATCH,Antioquia,Necoclí,MATCH,MATCH,KEEP_ORIGINAL
COL,205490002163,ESCUELA RURAL VILLA SONIA,6.16648,-74.99278,arcgis,uncertain,81.33,"VDA VILLA SONIA VDA VILLA SONIA, Necoclí, Antioquia, Colombia",318.23417577322164,compare,8.49306,-76.6733,Antioquia,San Carlos,MATCH,MISMATCH,Antioquia,Necoclí,MATCH,MATCH,FLAG
COL,218753003172,ESCUELA MINAS BLANCAS,2.1922,-74.71862,arcgis,centroid,93.67,"VDA MINAS BLANCAS, San Vicente del Caguán, Caquetá, Colombia",13.508312318770232,compare,2.31321,-74.72934,Caquetá,San Vicente del Caguán,MATCH,MATCH,Meta,La Macarena,MISMATCH,MISMATCH,FLAG
COL,218753003229,LAS MALVINAS,2.11317,-74.76918,arcgis,uncertain,87.76,"VDA LAS MAILVINAS, San Vicente del Caguán, Caquetá, Colombia",55.102823228525274,compare,2.16507,-74.27601,Caquetá,San Vicente del Caguán,MATCH,MATCH,Meta,La Macarena,MISMATCH,MISMATCH,FLAG
COL,218753003237,ESCUELA EL PLATANILLO,2.11317,-74.76918,arcgis,uncertain,88.94,"VDA PLATANILLO, San Vicente del Caguán, Caquetá, Colombia",63.89185202915867,compare,2.54964,-74.39517,Caquetá,San Vicente del Caguán,MATCH,MATCH,Meta,La Macarena,MISMATCH,MISMATCH,FLAG
COL,218753003261,ESCUELA LAS PAILAS,2.11317,-74.76918,arcgis,uncertain,89.57,"VDA LAS PAILAS, San Vicente del Caguán, Caquetá, Colombia",22.299833698641244,compare,2.27534,-74.65111,Caquetá,San Vicente del Caguán,MATCH,MATCH,Meta,La Macarena,MISMATCH,MISMATCH,FLAG
COL,219397002090,ESCUELA RURAL MIXTA LOMA GRANDE,1.8533,-76.78205,arcgis,centroid,91.58,"VDA LOMA GRANDE, La Vega, Cauca, Colombia",29.920106010062387,compare,2.122300851,-76.77560404,Cauca,San Sebastián,MATCH,MISMATCH,Cauca,La Vega,MATCH,MATCH,KEEP_ORIGINAL
COL,219397091980,ESCUELA RURAL MIXTA EL PLACER,2.0008326,-76.7788506,arcgis,uncertain,83.75,"VDA EL DERRUMBE, La Vega, Cauca, Colombia",9.398223427158763,compare,2.060413889,-76.83883611,Cauca,La Vega,MATCH,MATCH,Cauca,La Vega,MATCH,MATCH,FLAG
COL,219397092056,ESCUELA RURAL MIXTA LA EMPINADA,2.0008326,-76.7788506,arcgis,uncertain,83.75,"VDA LA EMPINADA, La Vega, Cauca, Colombia",13.510170650310176,compare,2.122290167,-76.7756421,Cauca,La Vega,MATCH,MATCH,Cauca,La Vega,MATCH,MATCH,FLAG
COL,219418000084,ESCUELA RURAL MIXTA ISLA DE GALLO,3.0,-77.25,arcgis,uncertain,87.03,"VDA ISLA GALLO, López de Micay, Cauca, Colombia",34.27964280562504,compare,3.132222222,-77.52888889,Cauca,López de Micay,MATCH,MATCH,Cauca,López de Micay,MATCH,MATCH,FLAG
COL,219418000131,SEDE GUACARI,3.0,-77.25,arcgis,uncertain,88.57,"VDA GUACARI, López de Micay, Cauca, Colombia",40.456356927046784,compare,3.048333,-77.611111,Cauca,López de Micay,MATCH,MATCH,Cauca,López de Micay,MATCH,MATCH,FLAG
COL,219418000181,ESCUELA RURAL MIXTA SANTA ANA,3.02862,-77.52386,arcgis,street,96.67,"VDA SANTA ANA, López de Micay, Cauca, Colombia",5.14350680488381,compare,3.04167,-77.5683,Cauca,López de Micay,MATCH,MATCH,Cauca,López de Micay,MATCH,MATCH,KEEP_ORIGINAL
COL,152788000027,ESCUELA URBANA DE VARONES PIO XII,1.064504674333,-77.350875901942,arcgis,uncertain,80.0,"AC BARRIO LOS ANDES 15 2015 BR LOS ANDES, Tangua, Nariño, Colombia",57.29355252408115,compare,1.57333,-77.26972,Nariño,Tangua,MATCH,MATCH,Nariño,Taminango,MATCH,MISMATCH,FLAG
COL,152835000740,INSTITUCIÓN EDUCATIVA INMACULADA CONCEPCIÓN,1.79112,-78.79275,arcgis,uncertain,81.75,"CL VILLA LOLA 22 23 BR VILLA LOLA, San Andrés de Tumaco, Nariño, Colombia",3.589571417949839,compare,1.806666667,-78.76444444,Nariño,San Andrés de Tumaco,MATCH,MATCH,Nariño,San Andrés de Tumaco,MATCH,MATCH,FLAG
COL,215180000042,ESCUELA GOLONDRINAS,6.46571,-72.37912,arcgis,uncertain,86.63,"VDA EL SALADO, Chiscas, Boyacá, Colombia",15.78625468691032,compare,6.58,-72.463889,Boyacá,Güicán de la Sierra,MATCH,MISMATCH,Boyacá,Chiscas,MATCH,MATCH,FLAG
COL,215180000085,ESCUELA RINCONCITOS,6.57837,-72.48276,arcgis,uncertain,81.38,"VDA TAPIAS SECTOR RINCONCITOS, Chiscas, Boyacá, Colombia",4.001900271681909,compare,6.613333,-72.474167,Boyacá,Chiscas,MATCH,MATCH,Boyacá,Chiscas,MATCH,MATCH,FLAG
COL,215180000221,ESCUELA MANUA GRANDE,6.57837,-72.48276,arcgis,uncertain,81.38,"VDA TAPIAS SECTOR MANUA GRANDE, Chiscas, Boyacá, Colombia",4.001900271681909,compare,6.613333,-72.474167,Boyacá,Chiscas,MATCH,MATCH,Boyacá,Chiscas,MATCH,MATCH,FLAG
COL,215180000328,ESCUELA LAS HIGUERAS,6.687722061146,-72.417230315534,arcgis,uncertain,80.0,"VDA CENTRO FINC SECTOR HIGUERAS, Chiscas, Boyacá, Colombia",13.039718771924427,compare,6.58,-72.463889,Boyacá,Chiscas,MATCH,MATCH,Boyacá,Chiscas,MATCH,MATCH,FLAG
COL,215183000051,ESCUELA CHIPAVIEJO,6.074640747739,-72.436322567532,arcgis,centroid,90.4,"C MINAS, Chita, Boyacá, Colombia",9.871016823694509,compare,6.151111,-72.481667,Boyacá,Chita,MATCH,MATCH,Boyacá,Chita,MATCH,MATCH,KEEP_ORIGINAL
